Institution Name,Main Office,Branch Name,Branch Number,Established Date,Acquired Date,Street Address,City,County,State,Zipcode,Latitude,Longitude,2010 Deposits,2011 Deposits,2012 Deposits,2013 Deposits,2014 Deposits,2015 Deposits,2016 Deposits,Branch Age,Year_Since_Acquisition,Total_Deposits,Growth_%,CAGR
JPMorgan Chase Bank,0,Amityville Driveup Branch,174,1954-06-14,1975-01-18,4 John St,Amityville,Suffolk,NY,11701,40.67894,-73.41969,93106.0,92272.0,96994.0,118907.0,115708.0,120730.0,125922,72,51,763639.0,35.245848817476855,5.1608264795945935
JPMorgan Chase Bank,0,Babylon Branch,176,1955-07-03,1975-01-18,31 West Main Street,Babylon,Suffolk,NY,11702,40.69642,-73.32368,261976.0,262704.0,261589.0,289395.0,281756.0,292377.0,314562,71,51,1964359.0,20.072831099031973,3.0957569776912885
JPMorgan Chase Bank,0,Center Moriches Main St Branch,178,1955-07-11,1975-01-18,366 Main St,Center Moriches,Suffolk,NY,11934,40.80038,-72.79423,109615.0,108206.0,115658.0,116485.0,119196.0,124078.0,125948,71,51,819186.0,14.900332983624503,2.3419170603715456
JPMorgan Chase Bank,0,Deer Park Grand Blvd Branch,184,1965-01-21,1975-01-18,615 Grand Boulevard,Deer Park,Suffolk,NY,11729,40.75895,-73.32,161904.0,163054.0,172441.0,186840.0,194550.0,211782.0,245797,61,51,1336368.0,51.81650854827552,7.206182922818827
JPMorgan Chase Bank,0,East Northportlarkfield Rd Branch,186,1950-04-11,1975-01-18,271 Larkfield Road,East Northport,Suffolk,NY,11731,40.87534,-73.32424,112628.0,113621.0,113899.0,121359.0,128286.0,129058.0,135773,76,51,854624.0,20.549952054551266,3.1639210273555207
JPMorgan Chase Bank,0,Bar Harbour Branch,193,1957-11-05,1975-01-18,4970 Merrick Road,Massapequa Park,Nassau,NY,11762,40.66638,-73.45151,144089.0,140839.0,154233.0,182186.0,183189.0,191372.0,225002,69,51,1220910.0,56.15487649994101,7.710801735051653
JPMorgan Chase Bank,0,Melville Branch,197,1958-12-15,1975-01-18,115 Broad Hollow Road,Melville,Suffolk,NY,11747,40.78894,-73.41543,150161.0,175267.0,196333.0,211336.0,228141.0,238768.0,257023,68,51,1457029.0,71.1649496207404,9.371072981121277
JPMorgan Chase Bank,0,North Bellmore Branch,198,1956-10-20,1975-01-18,1542 Bellmore Avenue,North Bellmore,Nassau,NY,11710,40.68369,-73.53926,118453.0,120413.0,120700.0,129811.0,140842.0,145634.0,160506,70,51,936359.0,35.501844613475384,5.193975398838724
JPMorgan Chase Bank,0,Northport Main St Branch,200,1952-12-23,1975-01-18,54 Main Street,Northport,Suffolk,NY,11768,40.90022,-73.35111,114464.0,124469.0,123740.0,130417.0,146551.0,148851.0,161857,74,51,950349.0,41.40428431646631,5.944177747054713
JPMorgan Chase Bank,0,Riverhead Shopping Center Branch,204,1957-07-15,1975-01-18,1450 Old Country Road,Riverhead,Suffolk,NY,11901,40.92665,-72.68985,18110.0,22493.0,30425.0,34501.0,37364.0,42626.0,51220,69,51,236739.0,182.82716731087797,18.91962215262022
JPMorgan Chase Bank,0,Seaford Branch,207,1958-05-26,1975-01-18,3875 Merrick Road,Seaford,Nassau,NY,11783,40.66589,-73.48901,166917.0,161700.0,165219.0,178338.0,177770.0,176259.0,196502,68,51,1222705.0,17.72437798426763,2.7569173999093977
JPMorgan Chase Bank,0,Southampton Driveup Branch,209,1963-03-18,1975-01-18,66 Nugent St,Southampton,Suffolk,NY,11968,40.88602,-72.39175,181336.0,185736.0,205727.0,244476.0,286428.0,354528.0,377210,63,51,1835441.0,108.01716151233069,12.983891138245095
JPMorgan Chase Bank,0,South Huntington Branch,211,1962-07-14,1975-01-18,55 W Jericho Tpke,Huntington Station,Suffolk,NY,11746,40.82849,-73.41184,170273.0,166491.0,188734.0,194858.0,203226.0,212423.0,221615,64,51,1357620.0,30.152754693932682,4.490200070895023
JPMorgan Chase Bank,0,North Massapequa Branch,212,1957-10-26,1975-01-18,1090 Hicksville Road,North Massapequa,Nassau,NY,11758,40.69588,-73.48077,231524.0,241475.0,258925.0,266756.0,260254.0,277246.0,295880,69,51,1832060.0,27.796686304659563,4.172542869540852
JPMorgan Chase Bank,0,Wantagh Branch,213,1952-04-10,1975-01-18,1201 Wantagh Avenue,Wantagh,Nassau,NY,11793,40.69326,-73.50773,231604.0,229646.0,234722.0,248764.0,249229.0,261668.0,290658,74,51,1746291.0,25.497832507210582,3.857860281136749
JPMorgan Chase Bank,0,West Babylon Branch,214,1963-08-08,1975-01-18,595 Sunrise Highway,West Babylon,Suffolk,NY,11704,40.71363,-73.34911,129530.0,133026.0,139176.0,145220.0,145100.0,148631.0,218498,63,51,1059181.0,68.68524666100517,9.105384318375243
JPMorgan Chase Bank,0,Wyandanch Compare Foods Branch,217,1960-04-23,1975-01-18,"1551 Straight Path Road, Assoc. Mkt.",Wyandanch,Suffolk,NY,11798,40.75205,-73.36144,19727.0,19658.0,20534.0,21076.0,20549.0,22264.0,23416,66,51,147224.0,18.700258528919754,2.8983973881359093
JPMorgan Chase Bank,0,North Patchogue Branch,222,1968-03-28,1975-01-18,472 Medford Avenue,North Patchogue,Suffolk,NY,11772,40.78404,-73.00877,84085.0,84929.0,87575.0,90701.0,93801.0,93201.0,105594,58,51,639886.0,25.580067788547307,3.8691997192116245
JPMorgan Chase Bank,0,West Bay Shore Branch,223,1968-04-04,1975-01-18,840 Sunrise Highway,Bay Shore,Suffolk,NY,11706,40.72923,-73.27809,138095.0,137232.0,144709.0,158294.0,153951.0,160476.0,172331,58,51,1065088.0,24.791628951084398,3.7602259871830634
JPMorgan Chase Bank,0,Huntington Branch,226,1968-12-11,1975-01-18,350 Main Street,Huntington,Suffolk,NY,11743,40.87074,-73.43057,468473.0,521308.0,555338.0,610032.0,606844.0,679446.0,714983,58,51,4156424.0,52.61989484986328,7.300527828146852
JPMorgan Chase Bank,0,Mineola Court House Branch,235,1970-06-29,1975-01-18,216 Old Country Road,Mineola,Nassau,NY,11501,40.73882,-73.64001,274996.0,276252.0,290593.0,291617.0,287279.0,307242.0,307257,56,51,2035236.0,11.731443366448966,1.865995758262451
JPMorgan Chase Bank,0,East Farmingdale Branch,239,1971-04-28,1975-01-18,1745 Broad Hollow Road,East Farmingdale,Suffolk,NY,11735,40.74442,-73.42264,62842.0,95038.0,89987.0,122210.0,151270.0,132133.0,186493,55,51,839973.0,196.76490245377295,19.876877693381132
JPMorgan Chase Bank,0,Arthur Avenue Branch,245,1952-11-24,1975-01-18,2402 Arthur Avenue,Bronx,Bronx,NY,10458,40.8558,-73.88736,91268.0,89264.0,91370.0,98079.0,100594.0,104040.0,115766,74,51,690381.0,26.841828461235046,4.042412915298743
JPMorgan Chase Bank,0,Madison Avenue & 86th Street Branch,247,1964-04-05,1975-01-18,12 East 86th Street,New York City,New York,NY,10028,40.78133,-73.96007,409788.0,464061.0,482450.0,467755.0,463682.0,461811.0,482959,62,51,3232506.0,17.85581813035033,2.7760299878946126
JPMorgan Chase Bank,0,Hauppauge Branch,255,1972-05-24,1975-01-18,200 Motor Parkway,Hauppauge,Suffolk,NY,11788,40.80679,-73.25463,169328.0,177093.0,197653.0,208731.0,220078.0,250431.0,280743,54,51,1504057.0,65.79833223093641,8.791932908544474
JPMorgan Chase Bank,0,Macarthur Airport Vets Hwy Branch,257,1972-10-25,1975-01-18,4155 Veterans Memorial Highway,Ronkonkoma,Suffolk,NY,11779,40.78232,-73.09576,122497.0,116919.0,129243.0,132146.0,144141.0,152568.0,167321,54,51,964835.0,36.59191653673151,5.334547300933967
JPMorgan Chase Bank,0,Smithtown Branch,272,1956-12-01,1975-10-11,42 West Main Street,Smithtown,Suffolk,NY,11787,40.85479,-73.19593,185851.0,190827.0,197592.0,220513.0,223066.0,242579.0,279616,70,51,1540044.0,50.451705936475996,7.044950599694322
JPMorgan Chase Bank,0,Stony Brook Branch,276,1970-03-04,1975-10-11,2210 Nesconset Highway,Stony Brook,Suffolk,NY,11790,40.87261,-73.12509,186061.0,207307.0,186930.0,193516.0,213523.0,216289.0,229279,56,51,1432905.0,23.227866129925133,3.5423827026764387
JPMorgan Chase Bank,0,Fort Salonga Branch,284,1974-05-31,1975-10-11,2 Fort Salonga Road,Fort Salonga,Suffolk,NY,11768,40.9124,-73.30051,87282.0,72358.0,88157.0,101644.0,102771.0,104226.0,132302,52,51,688740.0,51.57993629843496,7.178321997224257
JPMorgan Chase Bank,0,Nanuet Driveup Branch,287,1961-08-15,1977-01-04,39 Smith Street,Nanuet,Rockland,NY,10954,41.11233,-74.01439,190614.0,202278.0,214019.0,225500.0,232985.0,231234.0,237031,65,49,1533661.0,24.35130682950885,3.6991171366304476
JPMorgan Chase Bank,0,New York North Branch,288,1958-02-15,1977-01-04,333 Route 303,Orangeburg,Rockland,NY,10962,41.04667,-73.94522,121750.0,131683.0,178281.0,165874.0,169818.0,167399.0,184491,68,49,1119296.0,51.53264887063656,7.172748649590077
JPMorgan Chase Bank,0,Valley Cottage Branch,290,1963-02-12,1977-01-04,124 Route 303,Valley Cottage,Rockland,NY,10989,41.11734,-73.94144,107207.0,111976.0,126575.0,129650.0,145166.0,152451.0,153305,63,49,926330.0,42.999057897338794,6.1423900812324295
JPMorgan Chase Bank,0,Yankee Stadium Branch,363,1928-10-20,1981-10-26,76 East 161st Street,Bronx,Bronx,NY,10451,40.82725,-73.92476,99634.0,108556.0,104552.0,112101.0,116762.0,121525.0,3480,98,45,666610.0,-96.50721641206816,-42.82643413625824
JPMorgan Chase Bank,0,Broadway and 79th Street Branch,425,1969-01-10,1990-09-11,2219 Broadway,New York City,New York,NY,10024,40.7839,-73.98015,395943.0,412710.0,489051.0,516803.0,584403.0,555985.0,584026,57,36,3538921.0,47.502544558181356,6.69234289532783
JPMorgan Chase Bank,0,Morris Park Branch,433,1983-08-31,1991-07-19,1068 Morris Park Avenue,Bronx,Bronx,NY,10461,40.84911,-73.85402,126512.0,129094.0,136031.0,145582.0,151088.0,164809.0,223222,43,35,1076338.0,76.4433413431137,9.926114867876112
JPMorgan Chase Bank,0,Tottenville Branch,444,1974-08-23,1991-08-11,280 Page Avenue,Staten Island,Richmond,NY,10307,40.51718,-74.23413,100874.0,106069.0,105249.0,124999.0,136014.0,152985.0,163243,52,35,889433.0,61.828617879731155,8.353402658221531
JPMorgan Chase Bank,0,Brentwood Branch,452,1936-01-12,1992-03-13,1800 Brentwood Road,Brentwood,Suffolk,NY,11717,40.77857,-73.24617,67617.0,71120.0,70120.0,77884.0,78620.0,81544.0,88342,90,34,535247.0,30.650576038570183,4.556704931044275
JPMorgan Chase Bank,0,Lake Ronkonkoma Branch,458,1965-07-23,1992-03-13,601 Portion Road Lake Shore Plaza,Lake Ronkonkoma,Suffolk,NY,11779,40.83041,-73.09187,136362.0,142057.0,164646.0,161146.0,162623.0,161719.0,172494,61,34,1101047.0,26.497117965415583,3.995234484568333
JPMorgan Chase Bank,0,Bellmore Branch,465,1966-02-21,1992-06-20,2631 Merrick Road,Bellmore,Nassau,NY,11710,40.66299,-73.52854,157461.0,171357.0,180755.0,179743.0,193951.0,205398.0,218548,60,34,1307213.0,38.79500320714336,5.615819180953041
JPMorgan Chase Bank,0,Allerton Avenue Branch,466,1936-01-08,1992-06-20,748 Allerton Avenue,Bronx,Bronx,NY,10467,40.8654,-73.86543,66486.0,67543.0,63695.0,66252.0,70273.0,76970.0,82549,90,34,493768.0,24.159973528261588,3.6725072747302745
JPMorgan Chase Bank,0,Riverdale North Branch,467,1963-04-29,1992-06-20,5656 Riverdale Avenue,Bronx,Bronx,NY,10471,40.90559,-73.90439,96722.0,102128.0,107326.0,118795.0,130364.0,127864.0,139053,63,34,822252.0,43.765637600545894,6.23701244290098
JPMorgan Chase Bank,0,Boynton Avenue Branch,469,1927-04-14,1992-06-20,1536 Westchester Avenue,Bronx,Bronx,NY,10472,40.82864,-73.87836,38890.0,39441.0,45274.0,50041.0,56442.0,60162.0,61872,99,34,352122.0,59.09488300334276,8.046167983013186
JPMorgan Chase Bank,0,City Island Branch,470,1939-05-15,1992-06-20,207 City Island Avenue,Bronx,Bronx,NY,10464,40.84425,-73.78537,74028.0,71203.0,74897.0,83269.0,84015.0,81752.0,87474,87,34,556638.0,18.16339763332793,2.8206855117872465
JPMorgan Chase Bank,0,Concourse Branch,471,1926-06-12,1992-06-20,128 East Fordham Road,Bronx,Bronx,NY,10468,40.86236,-73.8981,92532.0,96626.0,103650.0,110381.0,115712.0,123640.0,129136,100,34,771677.0,39.558206890589204,5.7123912434182245
JPMorgan Chase Bank,0,Melrose Branch,472,1949-11-21,1992-06-20,360 East 149th Street,Bronx,Bronx,NY,10455,40.81641,-73.91896,143362.0,139353.0,138835.0,142950.0,142865.0,148608.0,153533,77,34,1009506.0,7.0946275861106844,1.1489271726919492
JPMorgan Chase Bank,0,Mosholu Branch,473,1928-06-15,1992-06-20,3408 Jerome Avenue,Bronx,Bronx,NY,10467,40.881,-73.88322,85813.0,95107.0,98688.0,220304.0,118507.0,118387.0,131595,98,34,868401.0,53.35089089065759,7.386012733225189
JPMorgan Chase Bank,0,Pelham Parkway Branch,474,1928-06-11,1992-06-20,2126 White Plains Road,Bronx,Bronx,NY,10462,40.85414,-73.86764,166924.0,168331.0,172688.0,183194.0,186641.0,206817.0,214699,98,34,1299294.0,28.620809470178045,4.284206214060382
JPMorgan Chase Bank,0,New Lots Branch,479,1961-03-13,1992-06-20,2100 Linden Boulevard,Brooklyn,Kings,NY,11207,40.66074,-73.88503,40157.0,42180.0,42957.0,47242.0,53978.0,56586.0,60407,65,34,343507.0,50.42707373558781,7.042029471171052
JPMorgan Chase Bank,0,Boro Park Branch,483,1925-02-02,1992-06-20,4901 Thirteenth Avenue,Brooklyn,Kings,NY,11219,40.63496,-73.9922,372403.0,377184.0,382038.0,499734.0,577501.0,666093.0,850875,101,34,3725828.0,128.48231620046025,14.764816191772056
JPMorgan Chase Bank,0,Brooklyn Trust Branch,485,1950-10-16,1992-06-20,177 Montague Street,Brooklyn,Kings,NY,11201,40.69423,-73.99223,463182.0,448075.0,480266.0,543999.0,594112.0,611802.0,656295,76,34,3797731.0,41.692682358122724,5.980159873145419
JPMorgan Chase Bank,0,Brownsville Branch,486,1903-06-29,1992-06-20,1697 Pitkin Avenue,Brooklyn,Kings,NY,11212,40.66971,-73.91058,26608.0,30392.0,31188.0,33872.0,34058.0,35972.0,40730,123,34,232820.0,53.07426337943476,7.353703087618224
JPMorgan Chase Bank,0,Bushwick Branch,487,1904-01-07,1992-06-20,819 Grand Street,Brooklyn,Kings,NY,11211,40.712,-73.94064,80934.0,93327.0,101083.0,106129.0,109817.0,126775.0,139762,122,34,757827.0,72.68638643833248,9.53250421609404
JPMorgan Chase Bank,0,Church Avenue Branch,488,1941-12-22,1992-06-20,891 Utica Avenue,Brooklyn,Kings,NY,11203,40.65128,-73.93028,76595.0,77506.0,81188.0,85793.0,96325.0,102320.0,110297,85,34,630024.0,44.000261113649714,6.265889033359229
JPMorgan Chase Bank,0,Bedford and Dekalb Branch,490,1950-10-16,1992-06-20,975 Bedford Avenue,Brooklyn,Kings,NY,11205,40.69073,-73.9553,41628.0,42412.0,53210.0,66539.0,78930.0,89326.0,100545,76,34,472590.0,141.53214182761602,15.832160113839521
JPMorgan Chase Bank,0,Flatbush Branch,491,1812-01-01,1992-06-20,883 Flatbush Avenue,Brooklyn,Kings,NY,11226,40.65042,-73.95864,117655.0,127056.0,133409.0,153540.0,159055.0,171222.0,194198,214,34,1056135.0,65.05715864179167,8.710725507020346
JPMorgan Chase Bank,0,Fourth Ave and 51st Street Branch,492,1912-05-18,1992-06-20,5101 Fourth Avenue,Brooklyn,Kings,NY,11220,40.64577,-74.01322,77872.0,79086.0,72429.0,81459.0,99274.0,103731.0,101875,114,34,615726.0,30.823659338401477,4.579777974081933
JPMorgan Chase Bank,0,Flatlands Branch,493,1926-01-09,1992-06-20,1987 Flatbush Avenue,Brooklyn,Kings,NY,11234,40.62129,-73.93544,126379.0,114066.0,108546.0,108997.0,109926.0,123330.0,142094,100,34,833338.0,12.434819075954074,1.9725948878697164
JPMorgan Chase Bank,0,Newkirk Plaza Branch,494,1930-10-03,1992-06-20,1509 Foster Avenue,Brooklyn,Kings,NY,11230,40.63432,-73.96269,118751.0,123258.0,115551.0,148252.0,153831.0,164917.0,167768,96,34,992328.0,41.277126087359264,5.928293357421888
JPMorgan Chase Bank,0,Kings Highway Branch,495,1930-09-22,1992-06-20,1663 East 17th Street,Brooklyn,Kings,NY,11229,40.60919,-73.95643,148665.0,149714.0,152949.0,176143.0,186245.0,202885.0,207354,96,34,1223955.0,39.47734840076683,5.702180678758917
JPMorgan Chase Bank,0,Mapleton Branch,496,1926-09-13,1992-06-20,6501 18th Avenue,Brooklyn,Kings,NY,11204,40.61909,-73.99014,152468.0,151279.0,177265.0,196219.0,199708.0,215111.0,241783,100,34,1333833.0,58.57950520765013,7.987754302337513
JPMorgan Chase Bank,0,Ninth Street Branch,498,1902-12-29,1992-06-20,444 5th Avenue,Brooklyn,Kings,NY,11215,40.66985,-73.98073,143163.0,161085.0,189245.0,205912.0,235212.0,248736.0,281082,124,34,1464435.0,96.33704239223822,11.900932960431776
JPMorgan Chase Bank,0,Havemeyer and Broadway Branch,499,1922-04-28,1992-06-20,225 Havemeyer Street,Brooklyn,Kings,NY,11211,40.70909,-73.95906,182139.0,212658.0,247696.0,282110.0,323918.0,361398.0,396328,104,34,2006247.0,117.59645106210093,13.834866171631855
JPMorgan Chase Bank,0,Avenue H Branch,500,1962-01-10,1992-06-20,1599 Flatbush Avenue,Brooklyn,Kings,NY,11210,40.63127,-73.946,100075.0,103583.0,109410.0,120122.0,118755.0,127984.0,174764,64,34,854693.0,74.63302523107669,9.737331770531243
JPMorgan Chase Bank,0,Avenue U and East 17th St Branch,501,1900-01-01,1992-06-20,1722 Avenue U,Brooklyn,Kings,NY,11229,40.59911,-73.95374,257757.0,256109.0,269664.0,393884.0,410870.0,432799.0,480204,126,34,2501287.0,86.30105098988582,10.926646607444912
JPMorgan Chase Bank,0,Park Slope Branch,502,1928-10-12,1992-06-20,127 Seventh Avenue,Brooklyn,Kings,NY,11215,40.67313,-73.97627,237639.0,247785.0,278493.0,318071.0,336599.0,360810.0,426675,98,34,2206072.0,79.54754901341951,10.246102985662375
JPMorgan Chase Bank,0,Albee Square Branch,503,1950-10-16,1992-06-20,20 Flatbush Avenue,Brooklyn,Kings,NY,11217,40.68837,-73.98067,76183.0,80761.0,109879.0,114184.0,125820.0,136994.0,143496,76,34,787317.0,88.35698252891065,11.12973722046151
JPMorgan Chase Bank,0,Sheepshead Bay Branch,504,1930-01-20,1992-06-20,2623 East 17th Street,Brooklyn,Kings,NY,11235,40.58801,-73.95236,169563.0,189151.0,207809.0,225472.0,253619.0,260294.0,319154,96,34,1625062.0,88.22148699893255,11.116409603886801
JPMorgan Chase Bank,0,Utica Avenue Branch,506,1925-02-11,1992-06-20,257 Utica Avenue,Brooklyn,Kings,NY,11213,40.66975,-73.93096,42737.0,43627.0,46388.0,45421.0,47631.0,49028.0,77637,101,34,352469.0,81.66225986849803,10.461461601634658
JPMorgan Chase Bank,0,Flushing Avenue Branch,507,1927-04-04,1992-06-20,210 Flushing Avenue,Brooklyn,Kings,NY,11205,40.6977,-73.96749,42574.0,47263.0,47002.0,55036.0,71490.0,71364.0,77548,99,34,412277.0,82.14872927138629,10.510707072701496
JPMorgan Chase Bank,0,Grand Street Branch,509,1902-01-01,1992-06-20,231 Grand Street,New York City,New York,NY,10013,40.71853,-73.99513,110712.0,127369.0,161513.0,197445.0,219289.0,245988.0,281266,124,34,1343582.0,154.05195462099863,16.81190056845283
JPMorgan Chase Bank,0,Broadway and 96th Street Branch,512,1900-01-01,1992-06-20,"2551 Broadway, 96th Street",New York City,New York,NY,10025,40.79445,-73.97206,327054.0,336573.0,354604.0,385553.0,422699.0,441168.0,474228,126,34,2741879.0,44.99990827202847,6.388484211905365
JPMorgan Chase Bank,0,Delancey Street Branch,517,1915-03-19,1992-06-20,109 Delancey Street,New York City,New York,NY,10002,40.71855,-73.98854,85326.0,98701.0,110630.0,143089.0,156827.0,165411.0,241126,111,34,1001110.0,182.5938166561189,18.90326380170675
JPMorgan Chase Bank,0,New York Life Branch,520,1922-12-18,1992-06-20,386 Park Avenue South,New York City,New York,NY,10016,40.74292,-73.98449,656985.0,634703.0,719617.0,810799.0,828921.0,904748.0,1015342,104,34,5571115.0,54.54568977982754,7.525007836264619
JPMorgan Chase Bank,0,University Place Branch,522,1966-01-31,1992-06-20,32 University Place,New York City,New York,NY,10003,40.73203,-73.99448,309704.0,319792.0,319671.0,389547.0,380990.0,425712.0,505325,60,34,2650741.0,63.16385968537701,8.501896272117193
JPMorgan Chase Bank,0,Harlem Branch,525,1936-02-11,1992-06-20,322 West 125th Street,New York City,New York,NY,10027,40.81054,-73.95217,100240.0,94289.0,100148.0,116099.0,110693.0,112429.0,108995,90,34,742893.0,8.734038308060654,1.4053619712278476
JPMorgan Chase Bank,0,Broadway and 144th St Branch,526,1915-01-09,1992-06-20,3515 Broadway,New York City,New York,NY,10031,40.82581,-73.95111,52810.0,54194.0,62007.0,62872.0,73002.0,77545.0,80515,111,34,462945.0,52.461654989585305,7.281977865195799
JPMorgan Chase Bank,0,West 125th Street Branch,528,1812-01-01,1992-06-20,55 West 125th Street,New York City,New York,NY,10027,40.80728,-73.94431,49683.0,52944.0,76041.0,62727.0,62265.0,59547.0,62652,214,34,425859.0,26.103496165690476,3.9412306636022576
JPMorgan Chase Bank,0,Stuyvesant Town Branch,530,1937-06-30,1992-06-20,255-257 First Avenue,New York City,New York,NY,10003,40.73198,-73.98219,174708.0,190866.0,206476.0,229780.0,256334.0,264379.0,294083,89,34,1616626.0,68.32829635735055,9.0668711869907
JPMorgan Chase Bank,0,Madison Avenue & 72nd Street Branch,541,1932-01-03,1992-06-20,35 East 72nd Street,New York City,New York,NY,10021,40.77162,-73.96504,526273.0,708192.0,723552.0,737114.0,746575.0,763661.0,815233,94,34,5020600.0,54.90686392803735,7.56684820417477
JPMorgan Chase Bank,0,Madison Ave Abd 48th St Branch,544,1960-11-04,1992-06-20,401 Madison Avenue,New York City,New York,NY,10017,40.75598,-73.97686,45099076.0,62630984.0,81960379.0,85177807.0,98322162.0,84569038.0,69044786,66,34,526804232.0,53.09578848134272,7.356218929675817
JPMorgan Chase Bank,0,Murray Hill Branch,547,1964-11-16,1992-06-20,450 Third Avenue,New York City,New York,NY,10016,40.74387,-73.97955,221419.0,313100.0,340458.0,336345.0,319832.0,349772.0,344585,62,34,2225511.0,55.62575930701521,7.649887566209634
JPMorgan Chase Bank,0,Glen Oaks Branch,555,1950-07-14,1992-06-20,256-21 Union Turnpike,Glen Oaks,Queens,NY,11004,40.74549,-73.71507,102893.0,110466.0,115407.0,128875.0,143291.0,161679.0,177306,76,34,939917.0,72.32076040158223,9.493818179161174
JPMorgan Chase Bank,0,Holliswood Branch,556,1954-05-24,1992-06-20,205-19 Hillside Avenue,Hollis,Queens,NY,11423,40.72077,-73.76014,135263.0,135889.0,135370.0,143989.0,149796.0,167186.0,181550,72,34,1049043.0,34.220001035020665,5.027462515897541
JPMorgan Chase Bank,0,Kew Gardens Branch,559,1950-02-24,1992-06-20,118-30 Queens Boulevard,Forest Hills,Queens,NY,11375,40.71475,-73.83218,116562.0,100347.0,108380.0,130912.0,140822.0,159394.0,170186,76,34,926603.0,46.00470136064927,6.511002751995343
JPMorgan Chase Bank,0,Sunnyside North Branch,561,1946-01-11,1992-06-20,47-11 Queens Boulevard,Sunnyside,Queens,NY,11104,40.74315,-73.91708,172783.0,168368.0,176517.0,189087.0,200097.0,208223.0,218572,80,34,1333647.0,26.50087103476615,3.9957487209247855
JPMorgan Chase Bank,0,Ridgewood Branch,563,1921-08-31,1992-06-20,60-67 Myrtle Avenue,Ridgewood,Queens,NY,11385,40.70068,-73.89588,159586.0,161695.0,168912.0,193408.0,194767.0,210515.0,239461,105,34,1328344.0,50.0513829533919,6.997426888340907
JPMorgan Chase Bank,0,Scarsdale Central Park Branch,568,1967-09-01,1992-06-20,"660 Central Park Avenue, #662",Scarsdale,Westchester,NY,10583,40.99988,-73.8153,124751.0,113163.0,125218.0,134956.0,136289.0,137138.0,203636,59,34,975151.0,63.2339620524084,8.509664412349437
JPMorgan Chase Bank,0,Madison Square Garden Branch,573,1967-12-18,1992-06-20,2 Pennsylvania Plaza,New York City,New York,NY,10001,40.74959,-73.99172,427106.0,452762.0,471520.0,517352.0,602574.0,641415.0,649655,59,34,3762384.0,52.10626870144648,7.240258493252805
JPMorgan Chase Bank,0,Tysens Lane Branch,577,1969-12-29,1992-06-20,2754 Hylan Boulevard,Staten Island,Richmond,NY,10306,40.56537,-74.11471,183755.0,181199.0,185636.0,204447.0,207016.0,216286.0,221378,57,34,1399717.0,20.474544910342576,3.153162935133591
JPMorgan Chase Bank,0,Port Washington Branch,578,1970-11-04,1992-06-20,115 Main Street,Port Washington,Nassau,NY,11050,40.83042,-73.6906,500040.0,486629.0,509760.0,558310.0,526763.0,574068.0,593566,56,34,3749136.0,18.703703703703702,2.8988951386341277
JPMorgan Chase Bank,0,Hunts Point Branch,586,1971-05-04,1992-06-20,1355 Oak Point Avenue,Bronx,Bronx,NY,10474,40.81068,-73.88309,29761.0,35522.0,35239.0,42160.0,47444.0,51894.0,48252,55,34,290272.0,62.131648802123586,8.38719235807368
JPMorgan Chase Bank,0,Bedford Village Branch,589,1971-08-11,1992-06-20,420 Old Post Road,Bedford,Westchester,NY,10506,41.19557,-73.65517,118327.0,120537.0,124930.0,126630.0,137616.0,130932.0,240960,55,34,999932.0,103.63906800645668,12.584045486313933
JPMorgan Chase Bank,0,North Broadway Branch,594,1972-06-19,1992-06-20,984 North Broadway,Yonkers,Westchester,NY,10701,40.96985,-73.88435,57326.0,59339.0,64696.0,70969.0,69778.0,72797.0,78674,54,34,473579.0,37.239646931584275,5.4176341685954865
JPMorgan Chase Bank,0,Valley Stream Branch,597,1973-05-21,1992-06-20,163 West Merrick Road,Valley Stream,Nassau,NY,11580,40.6663,-73.70341,173666.0,172788.0,173725.0,176409.0,185545.0,185222.0,199698,53,34,1267053.0,14.98969285870579,2.355178261893265
JPMorgan Chase Bank,0,Croton Branch,598,1973-10-29,1992-06-20,2003 Albany Post Road,Croton-On-Hudson,Westchester,NY,10520,41.23329,-73.91364,92127.0,95431.0,101910.0,109289.0,110926.0,119140.0,131127,53,34,759950.0,42.33286658634277,6.059815190413564
JPMorgan Chase Bank,0,Cypress Hills Branch,599,1974-04-03,1992-06-20,3380 Fulton Street,Brooklyn,Kings,NY,11208,40.68394,-73.8709,50283.0,50349.0,52081.0,54496.0,58831.0,64096.0,69864,52,34,400000.0,38.94159059721974,5.634401908886
JPMorgan Chase Bank,0,Foster Avenue Branch,603,1975-01-13,1992-06-20,9601 Foster Avenue,Brooklyn,Kings,NY,11236,40.6478,-73.90661,108303.0,102971.0,110238.0,109174.0,117484.0,122619.0,137699,51,34,808488.0,27.14236909411558,4.083458979216381
JPMorgan Chase Bank,0,Greenpoint Branch,608,1975-08-12,1992-06-20,798 Manhattan Avenue,Brooklyn,Kings,NY,11222,40.72777,-73.95299,202012.0,210655.0,231316.0,251185.0,288298.0,321036.0,365409,51,34,1869911.0,80.88479892283627,10.382530315099192
JPMorgan Chase Bank,0,Glendale Woodhaven Branch,609,1976-03-29,1992-06-20,71-04 Woodhaven Boulevard,Ridgewood,Queens,NY,11385,40.71165,-73.85987,98430.0,101797.0,101964.0,111534.0,129334.0,130971.0,143488,50,34,817518.0,45.776694097328054,6.483262664194989
JPMorgan Chase Bank,0,Mount Sinai Branch,624,1974-12-26,1992-06-20,5499 Nesconset Highway,Mount Sinai,Suffolk,NY,11766,40.93189,-73.03321,182016.0,197038.0,198995.0,217827.0,212899.0,225913.0,230524,52,34,1465212.0,26.650404360056257,4.016227073186207
JPMorgan Chase Bank,0,Boston Post Rd and Weaver Branch,698,1975-09-19,1992-06-20,1350 Boston Post Road,Larchmont,Westchester,NY,10538,40.93503,-73.74785,184207.0,181817.0,191224.0,193681.0,204713.0,220590.0,236461,51,34,1412693.0,28.367000168288936,4.249880391532845
JPMorgan Chase Bank,0,Commack Vanderbilt Pkwy Branch,701,1978-09-22,1992-06-20,39 Vanderbilt Motor Parkway,Commack,Suffolk,NY,11725,40.80733,-73.27931,150146.0,156084.0,166876.0,188898.0,200432.0,213996.0,238752,48,34,1315184.0,59.01322712559776,8.03692350798697
JPMorgan Chase Bank,0,Selden Branch,703,1977-06-28,1992-06-20,999 Middle Country Road,Selden,Suffolk,NY,11784,40.86371,-73.04897,168099.0,176965.0,180208.0,203190.0,202476.0,204596.0,220089,49,34,1355623.0,30.928203023218458,4.593701954915641
JPMorgan Chase Bank,0,Great Neck Plaza Branch,758,1961-09-30,1996-07-14,22 Grace Avenue,Great Neck,Nassau,NY,11021,40.78864,-73.72687,464689.0,473811.0,510551.0,558288.0,613746.0,671467.0,687826,65,30,3980378.0,48.01856725681047,6.754461133393286
JPMorgan Chase Bank,0,Hartsdale Branch,759,1962-04-28,1996-07-14,3 South Central Park Avenue,Hartsdale,Westchester,NY,10530,41.02211,-73.80873,118868.0,118099.0,119111.0,129781.0,131114.0,130726.0,137065,64,30,884764.0,15.308577581855504,2.4024315580681854
JPMorgan Chase Bank,0,Fleetwood Branch,761,1964-05-23,1996-07-14,511 Gramatan Avenue,Mount Vernon,Westchester,NY,10552,40.92465,-73.83623,161271.0,157404.0,169541.0,186230.0,193356.0,186928.0,197466,62,30,1252196.0,22.443588741931283,3.4322586162338853
JPMorgan Chase Bank,0,Grasmere Branch,763,1965-06-03,1996-07-14,1151 Hylan Boulevard,Staten Island,Richmond,NY,10305,40.59872,-74.08087,113371.0,109749.0,113106.0,133897.0,138386.0,156688.0,169941,61,30,935138.0,49.89812209471558,6.979204796215743
JPMorgan Chase Bank,0,Parkchester Branch,767,1940-12-08,1996-07-14,11 Hugh J. Grant Circle,Bronx,Bronx,NY,10462,40.83359,-73.86131,76758.0,76405.0,77605.0,83873.0,85878.0,97717.0,103621,86,30,601857.0,34.99700356966049,5.128553330493579
JPMorgan Chase Bank,0,Throggs Neck Branch,768,1800-01-01,1996-07-14,3528 East Tremont Avenue,Bronx,Bronx,NY,10465,40.83075,-73.82626,174282.0,176014.0,198989.0,215450.0,223805.0,237124.0,268193,226,30,1493857.0,53.884509014126536,7.448201499213369
JPMorgan Chase Bank,0,Mott Haven Branch,771,1800-01-01,1996-07-14,270 East 137th Street,Bronx,Bronx,NY,10454,40.81048,-73.92806,25330.0,32051.0,33451.0,33351.0,34427.0,35979.0,35921,226,30,230510.0,41.81208053691275,5.995038784916762
JPMorgan Chase Bank,0,Wakefield Branch,772,1800-01-01,1996-07-14,725 East 233rd Street,Bronx,Bronx,NY,10466,40.89317,-73.85647,133038.0,134340.0,137075.0,141976.0,145456.0,149789.0,176108,226,30,1017782.0,32.37420887265293,4.785348693662694
JPMorgan Chase Bank,0,Bensonhurst Branch,777,1800-01-01,1996-07-14,85-23 20th Avenue,Brooklyn,Kings,NY,11214,40.60485,-73.99799,142557.0,144241.0,144094.0,162097.0,158559.0,175765.0,183608,226,30,1110921.0,28.79620081791845,4.307893624993331
JPMorgan Chase Bank,0,Empire Boulevard Branch,779,1800-01-01,1996-07-14,1000 Nostrand Avenue,Brooklyn,Kings,NY,11225,40.66417,-73.95098,70312.0,68610.0,81205.0,92524.0,104539.0,123165.0,136518,226,30,676873.0,94.16031402889976,11.693202745738951
JPMorgan Chase Bank,0,Mill Basin Branch,780,1962-03-01,1996-07-14,6510 Avenue U,Brooklyn,Kings,NY,11234,40.61711,-73.91128,213138.0,222762.0,249831.0,263872.0,280792.0,298083.0,340618,64,30,1869096.0,59.81101446011504,8.127074144266167
JPMorgan Chase Bank,0,Bay Ridge Third Avenue Branch,781,1962-06-16,1996-07-14,9313 Third Avenue,Brooklyn,Kings,NY,11209,40.61836,-74.03315,165459.0,171074.0,172700.0,202903.0,230673.0,245086.0,278846,64,30,1466741.0,68.52875939054388,9.08850850238052
JPMorgan Chase Bank,0,Park Avenue and 55th St Branch,782,1959-10-14,1996-07-14,410 Park Avenue,New York City,New York,NY,10022,40.76015,-73.97195,971550.0,1005780.0,1008528.0,1012473.0,1065766.0,1070136.0,1107854,67,30,7242087.0,14.029540425093924,2.2122375590927668
JPMorgan Chase Bank,0,Second Ave and 106th St Branch,783,1962-01-12,1996-07-14,2065 2nd Avenue,New York City,New York,NY,10029,40.79069,-73.94248,68847.0,72589.0,73299.0,85176.0,91692.0,86872.0,89983,64,30,568458.0,30.699957877612675,4.563290422386657
JPMorgan Chase Bank,0,135th Street & Fifth Avenue Branch,784,1962-06-01,1996-07-14,2218 5th Avenue,New York City,New York,NY,10037,40.81311,-73.93745,52478.0,54744.0,57225.0,59578.0,59351.0,63149.0,67947,64,30,414472.0,29.477114219291895,4.399600124334646
JPMorgan Chase Bank,0,Avenue Of The Americas Branch,787,1800-01-01,1996-07-14,1370 Avenue Of The Americas,New York City,New York,NY,10019,40.76362,-73.97763,506396.0,518298.0,600258.0,635785.0,628139.0,679508.0,698544,226,30,4266928.0,37.94421756885915,5.507641911948813
JPMorgan Chase Bank,0,Grand Central Place,788,1800-01-01,1996-07-14,60 East 42nd Street,New York City,New York,NY,10017,40.75237,-73.97836,784595.0,912702.0,954878.0,1063416.0,1399938.0,1395495.0,1449603,226,30,7960627.0,84.75812361791752,10.773001584538333
JPMorgan Chase Bank,0,Hudson Street Branch,789,1800-01-01,1996-07-14,345 Hudson Street,New York City,New York,NY,10014,40.72748,-74.00734,127110.0,138189.0,158974.0,188448.0,201333.0,251023.0,277011,226,30,1342088.0,117.93013924946895,13.863942244440718
JPMorgan Chase Bank,0,Noho Branch,790,1800-01-01,1996-07-14,623 Broadway,New York City,New York,NY,10012,40.72602,-73.99625,194760.0,214049.0,236412.0,285129.0,372266.0,360850.0,387992,226,30,2051458.0,99.21544464982543,12.172698459882536
JPMorgan Chase Bank,0,Madison Avenue and 64th St Branch,791,1800-01-01,1996-07-14,726 Madison Avenue,New York City,New York,NY,10065,40.76655,-73.96925,273546.0,8707.0,689745.0,1031195.0,801473.0,27339.0,18449,226,30,2850454.0,-93.25561331549356,-36.19954973573738
JPMorgan Chase Bank,0,Broadway and Fulton Branch,794,1800-01-01,1996-07-14,214 Broadway,New York City,New York,NY,10038,40.71124,-74.00866,848998.0,875848.0,921054.0,988600.0,1001439.0,1011190.0,1498325,226,30,7145454.0,76.48157003903425,9.930083991587368
JPMorgan Chase Bank,0,Madison & 79th Street Branch,798,1800-01-01,1996-07-14,1025 Madison Avenue,New York City,New York,NY,10075,40.77613,-73.96219,256403.0,297063.0,359900.0,372306.0,391634.0,413091.0,396733,226,30,2487130.0,54.730248866042906,7.546398328170412
JPMorgan Chase Bank,0,First Ave and 44th St Branch,800,1953-12-14,1996-07-14,1 United Nations Plaza,New York City,New York,NY,10017,40.75012,-73.96888,1049068.0,662093.0,663589.0,668676.0,604426.0,576754.0,575874,73,30,4800480.0,-45.106132300289396,-9.51276761574139
JPMorgan Chase Bank,0,West 14th Street Branch,801,1800-01-01,1996-07-14,69 5th Avenue,New York City,New York,NY,10003,40.7363,-73.9934,255193.0,262922.0,291581.0,315775.0,337511.0,380178.0,399598,226,30,2242758.0,56.5865834877916,7.760374348929777
JPMorgan Chase Bank,0,Third Avenue and 79th Street Branch,802,1963-03-12,1996-07-14,201 East 79th Street,New York City,New York,NY,10075,40.7743,-73.95719,252158.0,272514.0,300037.0,331262.0,342944.0,433235.0,453850,63,30,2386000.0,79.98635775981727,10.290963678284415
JPMorgan Chase Bank,0,73rd Street & Broadway Branch,803,1800-01-01,1996-07-14,2099 Broadway,New York City,New York,NY,10023,40.77959,-73.98192,414374.0,436965.0,508815.0,572092.0,559936.0,574801.0,624351,226,30,3691334.0,50.67330479228909,7.071212065472343
JPMorgan Chase Bank,0,Third Avenue and 56th Street Branch,804,1962-03-21,1996-07-14,919 Third Avenue,New York City,New York,NY,10022,40.75954,-73.96798,336162.0,390954.0,411627.0,471007.0,473221.0,550514.0,528531,64,30,3162016.0,57.22508790404627,7.833484979994432
JPMorgan Chase Bank,0,Dyckman Street Branch,805,1800-01-01,1996-07-14,161 Dyckman Street,New York City,New York,NY,10040,40.86383,-73.92618,108837.0,106662.0,113988.0,120496.0,117747.0,122689.0,125791,226,30,816210.0,15.577423118976084,2.4421853652096592
JPMorgan Chase Bank,0,Ditmars Branch,810,1800-01-01,1996-07-14,22-45 31st Street,Astoria,Queens,NY,11105,40.78013,-73.90961,104599.0,109107.0,120913.0,142525.0,162773.0,177011.0,196242,226,30,1013170.0,87.61364831403742,11.056522787909294
JPMorgan Chase Bank,0,Corona 103rd St Branch,813,1800-01-01,1996-07-14,37-94 103rd Street,Corona,Queens,NY,11368,40.75213,-73.86393,61787.0,66429.0,71317.0,81202.0,88128.0,99129.0,111159,226,30,579151.0,79.90677650638483,10.282834626467707
JPMorgan Chase Bank,0,Broadway-Flushing Branch,814,1800-01-01,1996-07-14,163-20 Northern Boulevard,Flushing,Queens,NY,11358,40.76096,-73.8022,160279.0,173182.0,166057.0,186743.0,201634.0,214746.0,246032,226,30,1348673.0,53.50233031151929,7.403680045043681
JPMorgan Chase Bank,0,Roosevelt and 75th St Branch,818,1949-10-31,1996-07-14,37-67 75th Street,Jackson Heights,Queens,NY,11372,40.74698,-73.89042,131165.0,134820.0,134910.0,154188.0,172241.0,190912.0,216622,77,30,1134858.0,65.15228910151336,8.721165545634069
JPMorgan Chase Bank,0,Jamaica Branch,819,1800-01-01,1996-07-14,161-10 Jamaica Avenue,Jamaica,Queens,NY,11432,40.70424,-73.79809,100593.0,101440.0,106050.0,111444.0,122882.0,124029.0,135494,226,30,801932.0,34.69525712524729,5.089352767051847
JPMorgan Chase Bank,0,Kew Gardens Branch,820,1800-01-01,1996-07-14,81-35 Lefferts Boulevard,Kew Gardens,Queens,NY,11415,40.70854,-73.83069,151105.0,157720.0,169500.0,192324.0,206538.0,220550.0,221926,226,30,1319663.0,46.8687336620231,6.61579714255871
JPMorgan Chase Bank,0,Grand Ave and 66th St Branch,821,1800-01-01,1996-07-14,66-02 Grand Avenue,Maspeth,Queens,NY,11378,40.72428,-73.89845,104688.0,105907.0,114935.0,130072.0,135616.0,143010.0,172690,226,30,906918.0,64.95682408681033,8.699708913289506
JPMorgan Chase Bank,0,Metropolitan and 74th St Branch,823,1800-01-01,1996-07-14,74-03 Metropolitan Avenue,Middle Village,Queens,NY,11379,40.71286,-73.87803,89975.0,90936.0,94734.0,124739.0,130157.0,135214.0,146883,226,30,812638.0,63.24868018894138,8.511294996286601
JPMorgan Chase Bank,0,Ozone Park Branch,825,1800-01-01,1996-07-14,96-19 101st Avenue,Ozone Park,Queens,NY,11416,40.68472,-73.84441,115238.0,122692.0,126056.0,144284.0,150878.0,152379.0,162842,226,30,974369.0,41.309290338256474,5.932312386239791
JPMorgan Chase Bank,0,Richmond Hill South Branch,828,1800-01-01,1996-07-14,11118 Liberty Avenue,South Richmond Hill,Queens,NY,11419,40.685,-73.83045,179088.0,182127.0,189507.0,206540.0,228101.0,241268.0,263246,226,30,1489877.0,46.99253998034486,6.630770916678741
JPMorgan Chase Bank,0,Rockaway Park Branch,830,1800-01-01,1996-07-14,257 Beach 116th St,Rockaway Park,Queens,NY,11694,40.58016,-73.83724,135547.0,137276.0,136306.0,158206.0,154171.0,166746.0,188020,226,30,1076272.0,38.71203346440718,5.605293945188206
JPMorgan Chase Bank,0,Whitestone Branch,832,1800-01-01,1996-07-14,153-15 Cross Island Parkway,Whitestone,Queens,NY,11357,40.78698,-73.80896,249996.0,259551.0,271758.0,305100.0,335949.0,343298.0,371425,226,30,2137077.0,48.57237715803453,6.820927704536528
JPMorgan Chase Bank,0,Woodhaven Branch,833,1800-01-01,1996-07-14,84-01 Jamaica Avenue,Woodhaven,Queens,NY,11421,40.69252,-73.8598,75436.0,79859.0,78226.0,87644.0,91707.0,96118.0,108335,226,30,617325.0,43.61180338300016,6.218057775702146
JPMorgan Chase Bank,0,New Dorp Branch,835,1950-05-07,1996-07-14,200 New Dorp Lane,Staten Island,Richmond,NY,10306,40.57299,-74.11458,184754.0,169675.0,184606.0,198685.0,204004.0,203885.0,218596,76,30,1364205.0,18.3173300713381,2.8429976305595073
JPMorgan Chase Bank,0,West New Brighton Branch,836,1951-01-11,1996-07-14,666 Forest Avenue,Staten Island,Richmond,NY,10310,40.62962,-74.11126,162536.0,165944.0,176733.0,182973.0,187087.0,232916.0,211059,75,30,1319248.0,29.853693950878572,4.450146011806999
JPMorgan Chase Bank,0,Syosset Branch,839,1963-09-01,1996-07-14,220 West Jericho Turnpike,Syosset,Nassau,NY,11791,40.80619,-73.52079,222117.0,248647.0,253460.0,253517.0,244404.0,273632.0,292276,63,30,1788053.0,31.58650621069076,4.6811679074897805
JPMorgan Chase Bank,0,Yorktown Heights Branch,840,1962-07-19,1996-07-14,2035 Crompond Road,Yorktown Heights,Westchester,NY,10598,41.27755,-73.78445,111770.0,112707.0,115405.0,126959.0,137324.0,142766.0,152928,64,30,899859.0,36.82383466046345,5.364333990496939
JPMorgan Chase Bank,0,Midwood Branch,841,1964-12-08,1996-07-14,1501 Avenue M,New York City,Kings,NY,11230,40.61807,-73.96002,305645.0,316308.0,356369.0,407742.0,453300.0,481014.0,515648,62,30,2836026.0,68.70814179849172,9.10785226935442
JPMorgan Chase Bank,0,South Valley Stream Branch,842,1966-01-11,1996-07-14,930 Rosedale Road,Valley Stream,Nassau,NY,11581,40.65331,-73.72446,104107.0,104985.0,106264.0,118691.0,121118.0,135792.0,147637,60,30,838594.0,41.8127503433967,5.995122224005356
JPMorgan Chase Bank,0,Ardsley Branch,843,1966-12-20,1996-07-14,875 Saw Mill River Road,Ardsley,Westchester,NY,10502,41.01809,-73.84419,102165.0,104157.0,115666.0,126992.0,135502.0,144205.0,154608,60,30,883295.0,51.33166935839084,7.1490448031995335
JPMorgan Chase Bank,0,Brighton Beach Branch,845,1967-12-28,1996-07-14,722 Brighton Beach Avenue,Brooklyn,Kings,NY,11235,40.57777,-73.96046,279348.0,297397.0,287003.0,319340.0,316661.0,311404.0,320744,59,30,2131897.0,14.818792330712945,2.329808747075557
JPMorgan Chase Bank,0,Mcdonald Avenue Branch,846,1967-12-19,1996-07-14,4323 18th Avenue,Brooklyn,Kings,NY,11218,40.63109,-73.97626,182563.0,183109.0,198810.0,227607.0,261328.0,275327.0,299425,59,30,1628169.0,64.01187535261799,8.595679992962912
JPMorgan Chase Bank,0,Pelham Bay Branch,848,1968-12-16,1996-07-14,3217 Westchester Avenue,Bronx,Bronx,NY,10461,40.85194,-73.82943,140585.0,130201.0,129417.0,134399.0,130061.0,134879.0,142503,58,30,942045.0,1.3642991784329765,0.2261012921074279
JPMorgan Chase Bank,0,Carle Place Branch,852,1970-06-22,1996-07-14,267 Old Country Road,Carle Place,Nassau,NY,11514,40.74416,-73.60935,162061.0,145166.0,149805.0,159280.0,160835.0,182550.0,188355,56,30,1148052.0,16.224754876250298,2.5375901731700345
JPMorgan Chase Bank,0,Millwood Branch,853,1970-09-25,1996-07-14,230 Saw Millriver Road,Millwood,Westchester,NY,10546,41.18801,-73.80361,122835.0,131722.0,147945.0,154644.0,168702.0,176644.0,209671,56,30,1112163.0,70.69320633369968,9.320776060412994
JPMorgan Chase Bank,0,Second Avenue & 86th Street Branch,854,1970-11-24,1996-07-14,244 East 86th Street,New York City,New York,NY,10028,40.77802,-73.95207,196488.0,206148.0,218109.0,239303.0,280880.0,302522.0,308081,56,30,1751531.0,56.79379911241399,7.784128332674745
JPMorgan Chase Bank,0,Jamaica Estates Branch,856,1971-03-25,1996-07-14,184-01 Hillside Avenue,Jamaica,Queens,NY,11432,40.71413,-73.77765,125592.0,137879.0,143975.0,143023.0,144838.0,150876.0,165210,55,30,1011393.0,31.545002866424614,4.675664316792982
JPMorgan Chase Bank,0,Cross River Branch,861,1972-07-14,1996-07-14,20 N Salem Rd,Cross River,Westchester,NY,10518,41.26748,-73.59811,142655.0,141607.0,138134.0,150328.0,162652.0,154546.0,178545,54,30,1068467.0,25.15859941817672,3.8110178121526284
JPMorgan Chase Bank,0,Quaker Ridge Branch,862,1972-01-12,1996-07-14,45 Quaker Ridge Road,New Rochelle,Westchester,NY,10804,40.94795,-73.79482,218021.0,214519.0,251864.0,255083.0,259401.0,245912.0,285879,54,30,1730679.0,31.12452470174891,4.619824660922034
JPMorgan Chase Bank,0,Gun Hill Road Branch,863,1973-03-01,1996-07-14,1650 Gun Hill Road,Bronx,Bronx,NY,10469,40.8662,-73.83816,72912.0,75324.0,78907.0,85211.0,98481.0,108210.0,116472,53,30,635517.0,59.743252139565506,8.119431537683152
JPMorgan Chase Bank,0,East Hills Branch,872,1974-12-27,1996-07-14,425 Glen Cove Road,Roslyn Heights,Nassau,NY,11577,40.78575,-73.62236,219554.0,217106.0,219577.0,230278.0,225396.0,232103.0,260070,52,30,1604084.0,18.453774470062033,2.862754687178981
JPMorgan Chase Bank,0,Abingdon Square Branch,875,1975-07-30,1996-07-14,302 West 12th Street,New York City,New York,NY,10014,40.73755,-74.00471,233563.0,257828.0,267549.0,314217.0,322582.0,332715.0,343206,51,30,2071660.0,46.94365117762659,6.624859309079434
JPMorgan Chase Bank,0,Fort Washington Avenue Branch,876,1975-01-12,1996-07-14,596 Fort Washington Avenue,New York City,New York,NY,10033,40.85499,-73.93686,88999.0,89305.0,100875.0,115317.0,119510.0,130750.0,132319,51,30,777075.0,48.67470421015966,6.83318607916148
JPMorgan Chase Bank,0,Monroe Branch,881,1974-05-17,1996-07-14,"475 Route 17m, K-Mart Plaza",Monroe,Orange,NY,10950,41.31862,-74.17588,91732.0,105161.0,119979.0,139674.0,135359.0,158833.0,177419,52,30,928157.0,93.41015131033882,11.62116323712059
JPMorgan Chase Bank,0,Brewster Branch,883,1975-01-09,1996-07-14,1511 Route 22,Brewster,Putnam,NY,10509,41.42067,-73.57661,68427.0,70943.0,74226.0,74038.0,79445.0,85676.0,92206,51,30,544961.0,34.75090242155874,5.0965872730074135
JPMorgan Chase Bank,0,Eastchester Branch,975,1947-12-08,1996-07-14,360 White Plains Road,Eastchester,Westchester,NY,10709,40.95287,-73.81557,141070.0,145380.0,153429.0,167881.0,183916.0,197583.0,210600,79,30,1199859.0,49.28758772240732,6.906460275441684
JPMorgan Chase Bank,0,Halston and Harrison Branch,977,1940-04-20,1996-07-14,275 Halstead Avenue,Harrison,Westchester,NY,10528,40.96605,-73.71702,225475.0,246438.0,301204.0,296032.0,260284.0,242329.0,258189,86,30,1829951.0,14.508925601507928,2.283729882258867
JPMorgan Chase Bank,0,Larchmont Branch,979,1956-04-13,1996-07-14,125 Chatsworth Avenue,Larchmont,Westchester,NY,10538,40.94142,-73.76436,91875.0,160140.0,187779.0,214168.0,225678.0,231940.0,263727,70,30,1375307.0,187.04979591836735,19.213710930200367
JPMorgan Chase Bank,0,Mount Kisco Satellite Express Branch,980,1960-06-12,1996-07-14,777 North Bedford Road,Bedford Hills,Westchester,NY,10507,41.22251,-73.71532,139743.0,141039.0,161442.0,193284.0,207640.0,225145.0,216383,66,30,1284676.0,54.84353420207094,7.559517627650858
JPMorgan Chase Bank,0,New Rochelle Branch,981,1954-01-11,1996-07-14,270 North Avenue,New Rochelle,Westchester,NY,10801,40.91212,-73.78289,123508.0,132621.0,136375.0,174310.0,162972.0,157895.0,168282,72,30,1055963.0,36.25190271075558,5.290800926946937
JPMorgan Chase Bank,0,Peekskill Branch,982,1959-05-15,1996-07-14,1825 East Main Street,Peekskill,Westchester,NY,10566,41.29632,-73.89549,131849.0,137158.0,148911.0,160837.0,163868.0,175897.0,183091,67,30,1101611.0,38.86415520785141,5.624587543533743
JPMorgan Chase Bank,0,Pleasantville Branch,983,1961-06-30,1996-07-14,17 Washington Avenue,Pleasantville,Westchester,NY,10570,41.13582,-73.79182,140366.0,135717.0,141729.0,144352.0,153348.0,156725.0,175042,65,30,1047279.0,24.703988145277346,3.7480773464876993
JPMorgan Chase Bank,0,Rye Branch,984,1960-01-08,1996-07-14,73 Purchase Street,Rye,Westchester,NY,10580,40.98291,-73.68445,404657.0,487229.0,564822.0,559820.0,537901.0,504208.0,565624,66,30,3624261.0,39.77862733129539,5.740200252173255
JPMorgan Chase Bank,0,Thruway Branch,985,1956-08-17,1996-07-14,360 South Broadway,Tarrytown,Westchester,NY,10591,41.06317,-73.86219,106385.0,113843.0,115709.0,126009.0,131869.0,147332.0,162695,70,30,903842.0,52.930394322507865,7.336880177040128
JPMorgan Chase Bank,0,Rosedale Branch,986,1962-05-11,1996-07-14,1214 Mamaroneck Avenue,White Plains,Westchester,NY,10605,40.99222,-73.74618,95960.0,109729.0,104405.0,115799.0,115657.0,122953.0,127201,64,30,791704.0,32.556273447269696,4.809354850579073
JPMorgan Chase Bank,0,Gedney Branch,987,1953-05-18,1996-07-14,501 Mamaroneck Avenue,White Plains,Westchester,NY,10605,41.02233,-73.75882,163891.0,163906.0,168961.0,182904.0,181766.0,193928.0,232484,73,30,1287840.0,41.852816811173284,6.000112784070133
JPMorgan Chase Bank,0,North White Plains Branch,988,1961-10-10,1996-07-14,566 North Broadway,White Plains,Westchester,NY,10603,41.05265,-73.76996,135042.0,138773.0,148868.0,158419.0,155928.0,177778.0,197210,65,30,1112018.0,46.03604804431214,6.514813665893371
JPMorgan Chase Bank,0,Somers Branch,989,1974-10-31,1996-07-14,265 Route 202,Somers,Westchester,NY,10589,41.33196,-73.68042,74104.0,80677.0,83250.0,92946.0,100280.0,99053.0,106625,52,30,636935.0,43.88562020943539,6.251784359093104
JPMorgan Chase Bank,0,Islip Branch,997,1979-12-28,1996-07-14,556 Main Street,Islip,Suffolk,NY,11751,40.72931,-73.21308,199800.0,207065.0,228828.0,236469.0,227279.0,250342.0,262543,47,30,1612326.0,31.402902902902902,4.656810050013616
JPMorgan Chase Bank,0,Merrick Branch,1003,1987-05-18,1996-07-14,2122 Merrick Avenue,Merrick,Nassau,NY,11566,40.66665,-73.55345,94106.0,96519.0,105098.0,125654.0,141300.0,137327.0,148323,39,30,848327.0,57.612692070643746,7.877746193425228
JPMorgan Chase Bank,0,Select Direct I Branch,1016,1989-01-08,1996-07-14,"1 Chase Manhattan Plaza, 33rd Floor",New York City,New York,NY,10005,40.70772,-74.01012,165.0,158.0,162.0,139.0,133.0,118.0,157,37,30,1032.0,-4.848484848484849,-0.824906627124744
JPMorgan Chase Bank,0,East Meadow Branch,1017,1972-03-22,1996-07-14,2469 Hempstead Turnpike,East Meadow,Nassau,NY,11554,40.72477,-73.54492,302678.0,302834.0,318596.0,328939.0,336297.0,344577.0,357813,54,30,2291734.0,18.21572760491347,2.828273325313946
JPMorgan Chase Bank,0,Cross County Branch,1018,1973-09-24,1996-07-14,762 Central Park Avenue,Yonkers,Westchester,NY,10704,40.92689,-73.85713,130767.0,134528.0,139534.0,161594.0,163729.0,173715.0,190127,53,30,1093994.0,45.393715539853325,6.436586800265043
JPMorgan Chase Bank,0,Munsey Park Branch,1021,1981-03-27,1996-07-14,2111 Northern Boulevard,Manhasset,Nassau,NY,11030,40.79708,-73.66939,322256.0,357886.0,379920.0,401904.0,420642.0,411797.0,423422,45,30,2717827.0,31.393053969514924,4.655502633256803
JPMorgan Chase Bank,0,Chatham Square Branch,1026,1991-02-01,1996-07-14,2 Bowery,New York City,New York,NY,10013,40.71415,-73.99753,128436.0,144528.0,169953.0,209021.0,222059.0,246484.0,309391,35,30,1429872.0,140.89118315737022,15.780872355232578
JPMorgan Chase Bank,0,Hicksville Branch,1028,1969-06-14,1996-07-14,284 North Broadway,Hicksville,Nassau,NY,11801,40.77862,-73.53056,205788.0,215595.0,223654.0,244356.0,243527.0,266129.0,309181,57,30,1708230.0,50.24248255486229,7.020126139061844
JPMorgan Chase Bank,0,Jew. Home & Hosp. Mobile Tel. Branch,1032,1991-06-20,1996-07-14,100 West Kingsbridge Road,New York City,Bronx,NY,10468,40.86836,-73.90157,0.0,0.0,0.0,0.0,0.0,0.0,0,35,30,0.0,,
JPMorgan Chase Bank,0,Tower Branch,1040,1929-11-16,1996-07-14,1 S Clinton Ave,Rochester,Monroe,NY,14604,43.15711,-77.60666,112317.0,521531.0,347314.0,549217.0,537603.0,465753.0,593098,97,30,3126833.0,428.0571952598449,31.961373578206874
JPMorgan Chase Bank,0,Fairmount Branch,1041,1964-07-27,1996-07-14,3508 West Genesee Street,Syracuse,Onondaga,NY,13219,43.04832,-76.23206,43192.0,45424.0,50703.0,55732.0,59616.0,62205.0,63614,62,30,380486.0,47.28190405630672,6.665727153767853
JPMorgan Chase Bank,0,Dewitt Branch,1042,1951-02-01,1996-07-14,4425 East Genesee Street,De Witt,Onondaga,NY,13214,43.03523,-76.06748,93230.0,98570.0,108898.0,114590.0,129701.0,133209.0,138841,75,30,817039.0,48.92309342486324,6.862912899843532
JPMorgan Chase Bank,0,Industrial Park Branch,1043,1954-07-10,1996-07-14,6004 Court Street,Syracuse,Onondaga,NY,13206,43.08165,-76.10378,30995.0,31399.0,32475.0,36245.0,39819.0,38365.0,41665,72,30,250963.0,34.424907243103725,5.054168796970759
JPMorgan Chase Bank,0,Minoa Branch,1044,1964-02-28,1996-07-14,249 North Main Street,Minoa,Onondaga,NY,13116,43.07763,-76.00092,23397.0,22131.0,22785.0,23856.0,25406.0,27517.0,26540,62,30,171632.0,13.43334615549002,2.122974825759538
JPMorgan Chase Bank,0,Oneida Branch,1045,1958-03-02,1996-07-14,150 West Main Street,Oneida,Madison,NY,13421,43.09494,-75.65184,22337.0,22603.0,22498.0,23594.0,25453.0,31362.0,32174,68,30,180021.0,44.0390383668353,6.270657817544634
JPMorgan Chase Bank,0,Oswego Branch,1046,1964-06-04,1996-07-14,204 West First Street,Oswego,Oswego,NY,13126,43.45603,-76.51095,38414.0,39124.0,38510.0,44859.0,47254.0,51007.0,51837,62,30,311005.0,34.94298953506534,5.121541614100189
JPMorgan Chase Bank,0,Seventh North Branch,1047,1962-05-21,1996-07-14,424 7th North Street,Liverpool,Onondaga,NY,13088,43.09146,-76.17007,57153.0,55180.0,58549.0,62972.0,69984.0,70919.0,79894,64,30,454651.0,39.789687330498836,5.741594657023974
JPMorgan Chase Bank,0,James Street Branch,1049,1957-09-20,1996-07-14,801 James Street,Syracuse,Onondaga,NY,13203,43.05641,-76.14037,30751.0,33117.0,36051.0,39298.0,40990.0,40258.0,44578,69,30,265043.0,44.96439140190563,6.384140563552165
JPMorgan Chase Bank,0,University Branch,1050,1970-09-14,1996-07-14,649 South Crouse Avenue,Syracuse,Onondaga,NY,13210,43.04346,-76.13653,45556.0,58676.0,60118.0,73689.0,89551.0,102543.0,128649,56,30,558782.0,182.39748880498726,18.889492102285033
JPMorgan Chase Bank,0,Manlius Branch,1051,1972-04-17,1996-07-14,329 Fayette Street,Manlius,Onondaga,NY,13104,43.00564,-75.98423,64437.0,69391.0,74979.0,78329.0,77044.0,83309.0,94929,54,30,542418.0,47.32063876344336,6.670402103535555
JPMorgan Chase Bank,0,Cicero Banking Center Branch,1052,1972-09-28,1996-07-14,7888 Brewerton Road,Cicero,Onondaga,NY,13039,43.15179,-76.12463,42967.0,45543.0,50815.0,56525.0,66883.0,67468.0,73697,54,30,403898.0,71.52000372378802,9.408852451961325
JPMorgan Chase Bank,0,Lincoln Center Branch,1054,1979-01-01,1996-07-14,110 West Fayette Street,Syracuse,Onondaga,NY,13202,43.04874,-76.15296,94562.0,91215.0,95426.0,106696.0,105242.0,111478.0,112695,47,30,717314.0,19.175778854085152,2.9669858441423447
JPMorgan Chase Bank,0,Brighton Monroe Branch,1055,1940-12-19,1996-07-14,1755 Monroe Street,Rochester,Monroe,NY,14618,43.12933,-77.56781,113164.0,117477.0,125416.0,138694.0,164521.0,159959.0,169879,86,30,989110.0,50.11752854264607,7.005286538503563
JPMorgan Chase Bank,0,Brockport Branch,1056,1937-02-27,1996-07-14,66 Main Street,Brockport,Monroe,NY,14420,43.21519,-77.93859,38760.0,44085.0,51988.0,55870.0,57962.0,61165.0,60570,89,30,370400.0,56.26934984520123,7.723957745691723
JPMorgan Chase Bank,0,Canandaigua Branch,1057,1948-02-28,1996-07-14,130 South Main Street,Canandaigua,Ontario,NY,14424,42.88582,-77.28012,58078.0,59664.0,62347.0,65696.0,67632.0,68472.0,72775,78,30,454664.0,25.305623471882637,3.831332372519758
JPMorgan Chase Bank,0,Charlotte Branch,1063,1965-12-20,1996-07-14,3917 Lake Avenue,Rochester,Monroe,NY,14612,43.24174,-77.62017,33227.0,32632.0,37997.0,40643.0,42029.0,73156.0,72705,61,30,332389.0,118.8130135131068,13.940693348982137
JPMorgan Chase Bank,0,Henrietta Branch,1064,1957-02-25,1996-07-14,1575 East Henrietta Road,Rochester,Monroe,NY,14623,43.08942,-77.6101,68780.0,71797.0,90708.0,101282.0,108732.0,117415.0,138128,69,30,696842.0,100.82582145972667,12.323318370306291
JPMorgan Chase Bank,0,Irondequoit West Branch,1065,1941-01-12,1996-07-14,674 Titus Avenue,Irondequoit,Monroe,NY,14617,43.21067,-77.59862,47804.0,49104.0,54379.0,57240.0,58904.0,59521.0,59518,85,30,386470.0,24.50422558781692,3.7203599385997155
JPMorgan Chase Bank,0,Macedon Branch,1066,1959-11-16,1996-07-14,1890 West Wayne Plaza,Macedon,Wayne,NY,14502,43.06925,-77.28757,29651.0,23904.0,22651.0,23527.0,24918.0,23520.0,30460,67,30,178631.0,2.728407136352905,0.4496494994569833
JPMorgan Chase Bank,0,Eastway Branch,1067,1959-02-03,1996-07-14,1950 Empire Boulevard,Webster,Monroe,NY,14580,43.19285,-77.50225,47365.0,52355.0,58092.0,61729.0,63801.0,70915.0,80885,67,30,435142.0,70.76955557901404,9.328924210927214
JPMorgan Chase Bank,0,East Rochester Fairport Road Branch,1068,1962-12-13,1996-07-14,865 Fairport Road,East Rochester,Monroe,NY,14445,43.10297,-77.48247,31202.0,34194.0,41305.0,46152.0,49675.0,52344.0,55885,64,30,310757.0,79.1071085186847,10.200983505009642
JPMorgan Chase Bank,0,Monroe Avenue Branch,1071,1928-01-01,1996-07-14,560 Monroe Avenue,Rochester,Monroe,NY,14607,43.14573,-77.59227,31378.0,34252.0,39705.0,41787.0,40043.0,42509.0,46126,98,30,275800.0,47.00108356173115,6.631803833732386
JPMorgan Chase Bank,0,West End Branch,1075,1921-01-12,1996-07-14,36 Genesee Street,Rochester,Monroe,NY,14611,43.14953,-77.636,4532.0,5223.0,6911.0,6370.0,6549.0,6695.0,6895,105,30,43175.0,52.14033539276258,7.244261155267928
JPMorgan Chase Bank,0,Browncroft Branch,1076,1951-11-19,1996-07-14,245 Merchants Road,Rochester,Monroe,NY,14609,43.16011,-77.54862,23973.0,24064.0,27297.0,27367.0,29485.0,30504.0,32662,75,30,195352.0,36.244942226671675,5.289904437271531
JPMorgan Chase Bank,0,Penfield Branch,1077,1965-03-15,1996-07-14,2159 Fairport 9 Mile Point Road,Fairport,Monroe,NY,14450,43.1292,-77.44129,44886.0,53873.0,59609.0,71144.0,72759.0,76979.0,89059,61,30,468309.0,98.41153143519136,12.097127750562153
JPMorgan Chase Bank,0,Irondequoit East Branch,1078,1966-11-14,1996-07-14,1982 Ridge Road East,Irondequoit,Monroe,NY,14622,43.20259,-77.56499,37920.0,38159.0,40612.0,43375.0,41960.0,41691.0,41893,60,30,285610.0,10.477320675105485,1.674533589276317
JPMorgan Chase Bank,0,Perinton Plaza Branch,1079,1967-12-14,1996-07-14,609 Moseley Road,Fairport,Monroe,NY,14450,43.07051,-77.44241,66783.0,75123.0,84243.0,95425.0,113512.0,110619.0,113051,59,30,658756.0,69.28110447269515,9.169523316923357
JPMorgan Chase Bank,0,Greece Ridge Branch,1080,1971-09-15,1996-07-14,358 Greece Ridge Center Drive,Rochester,Monroe,NY,14626,43.20629,-77.69435,26861.0,27757.0,30059.0,37064.0,37088.0,36411.0,38882,55,30,234122.0,44.752615315885485,6.358222310166428
JPMorgan Chase Bank,0,Pittsford Village Branch,1081,1972-09-28,1996-07-14,31 State Street,Pittsford,Monroe,NY,14534,43.09014,-77.51318,88164.0,97450.0,114239.0,130397.0,135479.0,147846.0,151267,54,30,864842.0,71.57456558232384,9.414652318955063
JPMorgan Chase Bank,0,Westgate Rochester Branch,1082,1974-10-16,1996-07-14,2130 Chili Avenue,Rochester,Monroe,NY,14624,43.13186,-77.68724,35506.0,35676.0,37166.0,39064.0,49633.0,59240.0,63635,52,30,319920.0,79.22322987664057,10.212888143559006
JPMorgan Chase Bank,0,Williamson Branch,1083,1975-03-11,1996-07-14,4124 Pearsall Street,Williamson,Wayne,NY,14589,43.20942,-77.18437,22202.0,26230.0,28390.0,31900.0,31686.0,34086.0,35040,51,30,209534.0,57.8236194937393,7.901794275058172
JPMorgan Chase Bank,0,U Of R River Campus Branch,1084,1976-08-23,1996-07-14,500 Joseph C Wilson Boulevard,Rochester,Monroe,NY,14627,43.12603,-77.63142,27141.0,33531.0,39022.0,51482.0,60637.0,72604.0,92659,50,30,377076.0,241.3986220109797,22.709153632639346
JPMorgan Chase Bank,0,Rochester Medical Center Branch,1085,1976-10-18,1996-07-14,260 Crittenden Boulevard,Rochester,Monroe,NY,14642,43.12152,-77.62725,93398.0,99784.0,108273.0,117540.0,125406.0,135468.0,142851,50,30,822720.0,52.948671277757555,7.339018070863368
JPMorgan Chase Bank,0,Scottsville Branch,1109,1960-09-11,1996-07-14,1 Rochester Street,Scottsville,Monroe,NY,14546,43.02023,-77.74836,23868.0,26498.0,29740.0,32459.0,37747.0,38691.0,36928,66,30,225931.0,54.71761354114295,7.544934565769745
JPMorgan Chase Bank,0,Liverpool Branch,1117,1974-05-30,1996-07-14,4169 Elmcrest Road,Liverpool,Onondaga,NY,13090,43.13601,-76.22642,61030.0,61076.0,67297.0,80748.0,85771.0,86981.0,94760,52,30,537663.0,55.26790103227921,7.608591526837971
JPMorgan Chase Bank,0,Rochester Small Bus Lending Branch,1119,1991-10-04,1996-07-14,2300 Buffalo Road,Rochester,Monroe,NY,14624,43.14651,-77.71357,0.0,0.0,0.0,0.0,0.0,0.0,0,35,30,0.0,,
JPMorgan Chase Bank,0,Greece Long Pond Branch,1120,1991-06-14,1996-07-14,690 Long Pond Road,Rochester,Monroe,NY,14612,43.25217,-77.6964,52228.0,53689.0,57789.0,61165.0,65793.0,69230.0,76001,35,30,435895.0,45.517729953281766,6.451712376284835
JPMorgan Chase Bank,0,Webster Branch,1122,1992-07-13,1996-07-14,920 Holt Road,Webster,Monroe,NY,14580,43.21181,-77.44654,51865.0,56591.0,67747.0,76241.0,88757.0,94371.0,98187,34,30,533759.0,89.31263858093126,11.223511274406949
JPMorgan Chase Bank,0,Arden Heights Branch,1123,1990-06-30,1996-07-14,230 Arden Avenue,Staten Island,Richmond,NY,10312,40.55315,-74.19189,165571.0,168259.0,167081.0,195490.0,202702.0,214585.0,240629,36,30,1354317.0,45.332817945171556,6.429155411209164
JPMorgan Chase Bank,0,Ny Presbyterian Branch,1124,1993-08-30,1996-07-14,180 Fort Washington Avenue,New York City,New York,NY,10032,40.84138,-73.94259,180500.0,171105.0,187839.0,202911.0,212026.0,220284.0,241520,33,30,1416185.0,33.80609418282548,4.9734125123910955
JPMorgan Chase Bank,0,Bridgeport North End Branch,1139,1949-03-01,1996-07-14,2125 Main Street,Bridgeport,Fairfield,CT,6606,41.19223,-73.19738,91824.0,84917.0,84803.0,89759.0,87182.0,90983.0,93821,77,30,623289.0,2.1748126851367835,0.3592271828844362
JPMorgan Chase Bank,0,Bridgeport West Side Branch,1140,1962-02-04,1996-07-14,1460 State Street,Bridgeport,Fairfield,CT,6605,41.16995,-73.21084,16450.0,15577.0,15988.0,16648.0,17842.0,19279.0,20215,64,30,121999.0,22.887537993920972,3.4946675685804562
JPMorgan Chase Bank,0,Fairfield Center Branch,1142,1937-01-06,1996-07-14,1401 Post Road,Fairfield,Fairfield,CT,6824,41.14153,-73.25641,210069.0,260132.0,286163.0,275514.0,262630.0,249255.0,271962,89,30,1815725.0,29.463176384902102,4.397726988149286
JPMorgan Chase Bank,0,South Norwalk Branch,1143,1957-05-08,1996-07-14,50 Washington Street,Norwalk,Fairfield,CT,6854,41.09897,-73.4188,32356.0,33316.0,36294.0,40144.0,38526.0,40447.0,44791,69,30,265874.0,38.4318209914699,5.569708401025064
JPMorgan Chase Bank,0,Trumbull Quality Street Branch,1146,1965-11-12,1996-07-14,"80 Quality Street, Town Hall Sc",Trumbull,Fairfield,CT,6611,41.25599,-73.21702,55558.0,58377.0,60524.0,59755.0,63373.0,66116.0,69359,61,30,433062.0,24.84070700889161,3.767026010744745
JPMorgan Chase Bank,0,Stony Hill Branch,1147,1966-09-24,1996-07-14,111 Newton Road,Danbury,Fairfield,CT,6810,41.41452,-73.4063,110704.0,118522.0,126303.0,134272.0,129342.0,133807.0,144766,60,30,897716.0,30.76853591559474,4.572432453011732
JPMorgan Chase Bank,0,Milford (Ford Street) Branch,1148,1967-09-16,1996-07-14,370 Boston Post Road,Milford,New Haven,CT,6460,41.22554,-73.07122,82623.0,83772.0,86838.0,86705.0,87268.0,89086.0,99210,59,30,615502.0,20.075523764569187,3.096142299104776
JPMorgan Chase Bank,0,Fairfield Woods Branch,1149,1969-03-15,1996-07-14,2272 Black Rock Turnpike,Fairfield,Fairfield,CT,6825,41.18273,-73.25433,109559.0,113381.0,118833.0,122273.0,123641.0,130116.0,142158,57,30,859961.0,29.754744019204267,4.436876439540183
JPMorgan Chase Bank,0,South Wilton Branch,1150,1969-09-27,1996-07-14,34 Danbury Road,Wilton,Fairfield,CT,6897,41.16495,-73.41807,79170.0,83522.0,84900.0,110853.0,110466.0,106259.0,108628,57,30,683798.0,37.208538587848935,5.413651260059615
JPMorgan Chase Bank,0,Greenfield Hill Branch,1151,1973-07-31,1996-07-14,161 Hillside Road,Fairfield,Fairfield,CT,6824,41.16264,-73.28397,66475.0,66670.0,67826.0,69132.0,79192.0,73426.0,89757,53,30,512478.0,35.02369311771343,5.132017114125187
JPMorgan Chase Bank,0,Newtown Branch,1153,1974-12-28,1996-07-14,30 Church Hill Road,Newtown,Fairfield,CT,6470,41.41458,-73.30159,51729.0,58509.0,65722.0,76224.0,84761.0,87607.0,100543,52,30,525095.0,94.36486303620792,11.712805714460849
JPMorgan Chase Bank,0,Darien Branch,1154,1979-05-10,1996-07-14,454 Post Road,Darien,Fairfield,CT,6820,41.08477,-73.46233,142841.0,145601.0,145549.0,166939.0,179178.0,176695.0,179940,47,30,1136743.0,25.972234862539466,3.9231907428749713
JPMorgan Chase Bank,0,Shelton Branch,1155,1982-10-07,1996-07-14,675 Bridgeport Avenue,Shelton,Fairfield,CT,6484,41.27746,-73.12147,67941.0,62727.0,69288.0,70702.0,85380.0,82786.0,93207,44,30,532031.0,37.18814854064556,5.411040243709464
JPMorgan Chase Bank,0,Westport Main Street Branch,1157,1984-02-07,1996-07-14,184 Main Street,Westport,Fairfield,CT,6880,41.14397,-73.36171,180522.0,170549.0,201507.0,224984.0,209499.0,196850.0,256422,42,30,1440333.0,42.04473692957091,6.024001506491405
JPMorgan Chase Bank,0,New Haven Church Street Branch,1161,1986-12-15,1996-07-14,234 Church Street,New Haven,New Haven,CT,6510,41.30935,-72.92335,98624.0,91812.0,109615.0,118269.0,125632.0,138889.0,189656,40,30,872497.0,92.30207657365347,11.514325616792176
JPMorgan Chase Bank,0,Greens Farms Branch,1164,1989-01-12,1996-07-14,1090 Post Road East,Westport,Fairfield,CT,6880,41.13894,-73.32742,93672.0,97949.0,97217.0,107338.0,138597.0,129123.0,125597,37,30,789493.0,34.08168929882996,5.009416556841528
JPMorgan Chase Bank,0,Bridgeport Boston Avenue Branch,1166,1958-06-11,1996-07-14,123 Boston Avenue,Bridgeport,Fairfield,CT,6610,41.20225,-73.18715,32025.0,33208.0,30830.0,34204.0,33075.0,36483.0,37338,68,30,237163.0,16.59016393442623,2.5912493890338117
JPMorgan Chase Bank,0,Stratford Barnum Avenue Branch,1168,1959-06-08,1996-07-14,2855 Main Street,Stratford,Fairfield,CT,6614,41.19947,-73.13164,107234.0,108717.0,107494.0,103394.0,104079.0,105200.0,166129,67,30,802247.0,54.92194639759778,7.568593670083579
JPMorgan Chase Bank,0,Monroe Ct Branch,1170,1979-08-08,1996-07-14,456 Monroe Turnpike,Monroe,Fairfield,CT,6468,41.31428,-73.21837,63203.0,66795.0,68238.0,76666.0,79725.0,82839.0,84911,47,30,522377.0,34.34647089536889,5.043949870595976
JPMorgan Chase Bank,0,New Canaan Branch,1171,1859-01-01,1996-07-14,21 East Avenue,New Canaan,Fairfield,CT,6840,41.14704,-73.49212,296742.0,338142.0,354297.0,340874.0,347820.0,381782.0,382113,167,30,2441770.0,28.769436075783005,4.304280661751547
JPMorgan Chase Bank,0,New Canaan Drive-In Branch,1172,1974-05-18,1996-07-14,21 East Avenue,New Canaan,Fairfield,CT,6840,41.14763,-73.49227,0.0,0.0,0.0,0.0,0.0,0.0,0,52,30,0.0,,
JPMorgan Chase Bank,0,Wilton Center Branch,1173,1978-09-09,1996-07-14,33 Old Ridgefield Road,Wilton,Fairfield,CT,6897,41.19454,-73.43425,240293.0,203817.0,205715.0,198059.0,219863.0,209799.0,244160,48,30,1521706.0,1.6092853308252841,0.26643323803199337
JPMorgan Chase Bank,0,Ridgefield Branch,1174,1971-11-13,1996-07-14,92-98 Grove Street,Ridgefield,Fairfield,CT,6877,41.28963,-73.497,111460.0,136416.0,138322.0,148903.0,143429.0,146849.0,161742,55,30,987121.0,45.112147855733,6.402205082305046
JPMorgan Chase Bank,0,Greenwich Financial Center Branch,1176,1987-07-15,1996-07-14,3a Pickwick Plaza,Greenwich,Fairfield,CT,6830,41.03016,-73.62546,245289.0,230703.0,303529.0,322360.0,372310.0,323202.0,337303,39,30,2134696.0,37.512485272474514,5.452534404468379
JPMorgan Chase Bank,0,Stamford Prospect Street Branch,1177,1982-06-21,1996-07-14,45 Prospect Street,Stamford,Fairfield,CT,6901,41.05757,-73.53729,204954.0,214910.0,238414.0,262654.0,260571.0,267904.0,320712,44,30,1770119.0,56.47999063204426,7.748144964259196
JPMorgan Chase Bank,0,Oradell Branch,1191,1995-10-03,1996-07-14,417 Kinderkamack Road,Oradell,Bergen,NJ,7649,40.95482,-74.03151,146496.0,143628.0,154301.0,156983.0,151251.0,156965.0,176232,31,30,1085856.0,20.298165137614678,3.127977476349564
JPMorgan Chase Bank,0,South Street Branch,1194,1982-04-01,1996-01-12,225 South Street,Morristown,Morris,NJ,7960,40.78877,-74.47224,139938.0,145111.0,160261.0,237528.0,248854.0,286115.0,320458,44,30,1538265.0,128.9999857079564,14.808112203295497
JPMorgan Chase Bank,0,Boonton Branch,1195,1954-11-29,1996-01-12,"530 Myrtle Avenue, A&p",Boonton,Morris,NJ,7005,40.9288,-74.42096,53328.0,60372.0,59421.0,67595.0,116456.0,71961.0,73840,72,30,502973.0,38.46384638463846,5.573778497941784
JPMorgan Chase Bank,0,Lake Hiawatha Branch,1196,1966-01-02,1996-01-12,53 North Beverwyck Road,Lake Hiawatha,Morris,NJ,7034,40.88016,-74.38229,167402.0,124592.0,131894.0,146354.0,166895.0,172558.0,189701,60,30,1099396.0,13.320629383161492,2.1060548439239657
JPMorgan Chase Bank,0,Denville Branch,1199,1949-01-24,1996-01-12,57 Diamond Spring Rd,Denville,Morris,NJ,7834,40.89353,-74.47684,104852.0,106963.0,120220.0,128947.0,131995.0,139706.0,147914,77,30,880597.0,41.0693167512303,5.902308504658427
JPMorgan Chase Bank,0,Florham Park Branch,1200,1956-06-25,1996-01-12,186 Ridgedale Avenue,Florham Park,Morris,NJ,7932,40.78731,-74.39056,100140.0,104419.0,110747.0,127155.0,128940.0,130612.0,139909,70,30,841922.0,39.71340123826643,5.7319749108374785
JPMorgan Chase Bank,0,Madison Waverly Branch,1201,1958-12-22,1996-01-12,2 Waverly Place,Madison,Morris,NJ,7940,40.75855,-74.41513,462000.0,1099344.0,456855.0,451583.0,427166.0,436239.0,411658,68,30,3744845.0,-10.896536796536797,-1.9044972430214302
JPMorgan Chase Bank,0,New Vernon Branch,1205,1965-01-03,1996-01-12,15 Village Road,New Vernon,Morris,NJ,7976,40.74249,-74.48442,59957.0,63835.0,58979.0,64674.0,73492.0,77266.0,84045,61,30,482248.0,40.17545907900662,5.790173936441034
JPMorgan Chase Bank,0,Parsippany Road Branch,1206,1967-01-30,1996-01-12,100 Parsippany Road,Parsippany,Morris,NJ,7054,40.8617,-74.42637,142325.0,149683.0,157221.0,167660.0,190290.0,183304.0,213111,59,30,1203594.0,49.73546460565607,6.959848492334597
JPMorgan Chase Bank,0,Montclair Branch,1208,1970-10-07,1996-01-12,19 North Fullerton Avenue,Montclair,Essex,NJ,7042,40.81424,-74.21802,172421.0,177839.0,183163.0,204310.0,207750.0,231329.0,254090,56,30,1430902.0,47.366040099523836,6.6758803549806345
JPMorgan Chase Bank,0,Upper Montclair Branch,1209,1957-12-23,1996-01-12,580 Valley Road,Upper Montclair,Essex,NJ,7043,40.8412,-74.20817,140208.0,151930.0,155258.0,164398.0,167857.0,183944.0,197159,69,30,1160754.0,40.61893757845487,5.845882619721321
JPMorgan Chase Bank,0,Watchung Plaza Branch,1210,1936-10-01,1996-01-12,17 Watchung Plaza,Montclair,Essex,NJ,7042,40.8298,-74.20627,100446.0,100831.0,110452.0,114692.0,123842.0,135456.0,136531,90,30,822250.0,35.924775501264364,5.24862660099692
JPMorgan Chase Bank,0,Verona Branch,1211,1951-01-10,1996-01-12,566 Bloomfield Avenue,Verona,Essex,NJ,7044,40.83177,-74.24552,65056.0,68704.0,71853.0,81304.0,89422.0,99164.0,100049,75,30,575552.0,53.78904328578456,7.437088973588057
JPMorgan Chase Bank,0,West Caldwell Branch,1212,1959-05-10,1996-01-12,865 Bloomfield Avenue,West Caldwell,Essex,NJ,7006,40.85119,-74.29807,123835.0,127054.0,143366.0,155333.0,169912.0,185715.0,189413,67,30,1094628.0,52.95594944886341,7.3398693545478455
JPMorgan Chase Bank,0,Short Hills Branch,1213,1963-12-23,1996-01-12,800 Morris Turnpike,Short Hills,Essex,NJ,7078,40.72156,-74.3348,202419.0,211621.0,209057.0,231591.0,249486.0,267784.0,281142,63,30,1653100.0,38.8911120003557,5.628004635834705
JPMorgan Chase Bank,0,Patterson Market Branch,1215,1972-05-20,1996-01-12,148 Market Street,Paterson,Passaic,NJ,7505,40.91645,-74.1714,33138.0,31368.0,39743.0,41614.0,44458.0,49409.0,55582,54,30,295312.0,67.7288913030358,9.002045045219775
JPMorgan Chase Bank,0,Midland Avenue Branch,1216,1980-12-05,1996-01-12,36 East Midland Avenue,Paramus,Bergen,NJ,7652,40.94853,-74.06935,134684.0,136333.0,163697.0,191646.0,191206.0,209943.0,228117,46,30,1255626.0,69.37201152326928,9.179292136567607
JPMorgan Chase Bank,0,Clifton Branch,1219,1980-05-19,1996-01-12,1459 Main Avenue,Clifton,Passaic,NJ,7011,40.8839,-74.1485,41989.0,45516.0,50481.0,45931.0,49670.0,52560.0,60759,46,30,346906.0,44.70218390530854,6.3520455950747845
JPMorgan Chase Bank,0,River Edge Branch,1220,1981-06-13,1996-01-12,686 Kinderkamack Road,River Edge,Bergen,NJ,7661,40.9316,-74.03384,63783.0,61397.0,95897.0,105362.0,113821.0,127798.0,143351,45,30,711409.0,124.74797359798065,14.450044036760135
JPMorgan Chase Bank,0,Hawthorne Branch,1221,1966-06-23,1996-01-12,331 Lafayette Avenue,Hawthorne,Passaic,NJ,7506,40.94949,-74.15524,84077.0,82404.0,89664.0,88623.0,107142.0,108780.0,111452,60,30,672142.0,32.55943956135447,4.809772075987762
JPMorgan Chase Bank,0,Wyckoff Branch,1223,1970-09-11,1996-01-12,525 Cedar Hill Avenue,Wyckoff,Bergen,NJ,7481,40.98579,-74.1686,141709.0,167634.0,167578.0,184062.0,177399.0,176236.0,182201,56,30,1196819.0,28.574049636932024,4.2778865382467
JPMorgan Chase Bank,0,Hackensack Branch,1225,1985-05-13,1996-01-12,505 Main Street,Hackensack,Bergen,NJ,7601,40.89468,-74.03955,70977.0,68777.0,60403.0,91107.0,101195.0,102293.0,109103,41,30,603855.0,53.71599250461417,7.428581738717921
JPMorgan Chase Bank,0,Westfield Branch,1226,1986-07-04,1996-01-12,302 East Broad Street,Westfield,Union,NJ,7090,40.65332,-74.34667,176007.0,179277.0,216742.0,341143.0,315539.0,321627.0,296201,40,30,1846536.0,68.28932940167152,9.062662730437964
JPMorgan Chase Bank,0,Hillside Branch,1227,1985-06-29,1996-01-12,1152 Liberty Avenue,Hillside,Union,NJ,7205,40.69359,-74.23662,66249.0,70625.0,72212.0,68286.0,66298.0,73105.0,73988,41,30,490763.0,11.68168576129451,1.8584336542793123
JPMorgan Chase Bank,0,Ridgewood Branch,1228,1990-03-12,1996-01-12,84 East Ridgewood Avenue East,Ridgewood,Bergen,NJ,7450,40.97959,-74.11838,138603.0,136139.0,150815.0,164863.0,176316.0,187110.0,207432,36,30,1161278.0,49.659098287915846,6.950754826054917
JPMorgan Chase Bank,0,Summit Branch,1229,1992-04-13,1996-01-12,67-69 Summit Avenue,Summit,Union,NJ,7901,40.71672,-74.35614,167920.0,169223.0,212022.0,248037.0,242824.0,233585.0,264875,34,30,1538486.0,57.73880419247261,7.89212760503748
JPMorgan Chase Bank,0,Palisades Park Branch,1232,1993-10-25,1996-01-12,460 Bergen Boulevard,Palisades Park,Bergen,NJ,7650,40.84579,-73.98571,121425.0,129690.0,142918.0,170686.0,184860.0,194725.0,218609,33,30,1162913.0,80.03623635989294,10.296057141880643
JPMorgan Chase Bank,0,Fort Lee Branch,1233,1994-11-30,1996-01-12,188-190 Main Street,Fort Lee,Bergen,NJ,7024,40.85103,-73.96942,193690.0,235424.0,227850.0,251566.0,268848.0,281802.0,331177,32,30,1790357.0,70.98301409468739,9.351688850764383
JPMorgan Chase Bank,0,Houston Main Office,1315,1912-03-07,2000-01-08,712 Main Street,Houston,Harris,TX,77002,29.75917,-95.36334,26356388.0,36991358.0,38794794.0,52284845.0,82408236.0,60702170.0,57820585,114,26,355358376.0,119.37977616659762,13.989827953712975
JPMorgan Chase Bank,0,Motor Bank Branch,1318,1980-04-02,2000-01-08,212 Milam Street,Houston,Harris,TX,77002,29.76398,-95.36201,0.0,0.0,0.0,0.0,0.0,0.0,0,46,26,0.0,,
JPMorgan Chase Bank,0,Woodlands Branch,1319,1972-05-17,2000-01-08,25025 Interstate 45 North Freeway,Spring,Montgomery,TX,77380,30.13594,-95.46871,124642.0,191821.0,139133.0,144451.0,158027.0,219354.0,177906,54,26,1155334.0,42.73358899889283,6.1095235198559195
JPMorgan Chase Bank,0,Detached Drive-In Facility Branch,1320,1979-11-13,2000-01-08,25025 Interstate 45 North Freeway,Spring,Montgomery,TX,77380,30.13594,-95.46871,0.0,0.0,0.0,0.0,0.0,0.0,0,47,26,0.0,,
JPMorgan Chase Bank,0,Stafford Branch,1321,1956-05-29,2000-01-08,11806 Wilcrest Drive,Houston,Harris,TX,77031,29.65071,-95.56772,228748.0,235691.0,283603.0,300138.0,325135.0,331924.0,348054,70,26,2053293.0,52.15608442478186,7.246111333540983
JPMorgan Chase Bank,0,Katy Freeway Branch,1322,1979-02-04,2000-01-08,400 Mason Road South,Katy,Harris,TX,77450,29.77967,-95.75194,233470.0,252919.0,265715.0,299108.0,314903.0,345855.0,355191,47,26,2067161.0,52.13560628774575,7.243705554259905
JPMorgan Chase Bank,0,Cypress Station Branch,1323,1982-07-15,2000-01-08,616 Fm 1960 West,Houston,Harris,TX,77090,30.01977,-95.44004,138218.0,152594.0,160359.0,165326.0,168555.0,172478.0,181581,44,26,1139111.0,31.37290367390644,4.652827486666844
JPMorgan Chase Bank,0,Champions Branch,1324,1983-04-15,2000-01-08,13202 Cutten Road,Houston,Harris,TX,77069,29.96969,-95.53134,178433.0,186097.0,211434.0,232536.0,237847.0,264192.0,269755,43,26,1580294.0,51.17999473191618,7.131138678523841
JPMorgan Chase Bank,0,Airline Branch,1325,1958-08-29,2000-01-08,5207 Airline Drive,Houston,Harris,TX,77022,29.84238,-95.38446,159938.0,160526.0,172907.0,182475.0,190342.0,199809.0,203489,68,26,1269486.0,27.229926596556165,4.095401855939684
JPMorgan Chase Bank,0,Drive-In Facility Branch,1326,1973-09-14,2000-01-08,5207 Airline Drive,Houston,Harris,TX,77022,29.84238,-95.38446,0.0,0.0,0.0,0.0,0.0,0.0,0,53,26,0.0,,
JPMorgan Chase Bank,0,Kirby Motor Bank Branch,1327,1963-06-27,2000-01-08,3002 Kirby Drive,Houston,Harris,TX,77098,29.73817,-95.41875,206799.0,223389.0,250942.0,285741.0,323188.0,332236.0,382351,63,26,2004646.0,84.89015904332226,10.786191448564143
JPMorgan Chase Bank,0,Kirby Motor Bank Branch,1329,1978-08-18,2000-01-08,3212 Kirby Drive,Houston,Harris,TX,77098,29.73617,-95.41879,0.0,0.0,0.0,0.0,0.0,0.0,0,48,26,0.0,,
JPMorgan Chase Bank,0,Reagan Motor Bank Branch,1330,1950-01-03,2000-01-08,500 West 20th Street,Houston,Harris,TX,77008,29.80288,-95.40687,306131.0,290563.0,329283.0,360067.0,385679.0,409356.0,432063,76,26,2513142.0,41.13663758325684,5.910729913458357
JPMorgan Chase Bank,0,Reagon Motor Bank Branch,1331,1971-05-01,2000-01-08,500 West 20th Street,Houston,Harris,TX,77008,29.8038,-95.40598,0.0,0.0,0.0,0.0,0.0,0.0,0,55,26,0.0,,
JPMorgan Chase Bank,0,Southeast Branch,1332,1971-06-21,2000-01-08,7545 Bellfort Street,Houston,Harris,TX,77061,29.67271,-95.28743,96343.0,96459.0,101798.0,108529.0,110376.0,114923.0,117235,55,26,745663.0,21.685021226243734,3.3251839269936356
JPMorgan Chase Bank,0,Medical Branch,1334,1974-06-21,2000-01-08,6560 Fannin Street,Houston,Harris,TX,77030,29.71154,-95.39956,236170.0,253950.0,282622.0,334578.0,387616.0,385359.0,449044,52,26,2329339.0,90.13591904136851,11.303980159854055
JPMorgan Chase Bank,0,Tanglewood Branch,1335,1977-08-15,2000-01-08,5851 San Felipe Road,Houston,Harris,TX,77057,29.74991,-95.48306,273270.0,273495.0,292811.0,324573.0,350450.0,353232.0,342548,49,26,2210379.0,25.351483880411312,3.8376649179762357
JPMorgan Chase Bank,0,Richmond/Sage Branch,1336,1979-05-01,2000-01-08,5177 Richmond Avenue,Houston,Harris,TX,77056,29.73153,-95.466,272029.0,255580.0,277923.0,318201.0,327979.0,338984.0,362645,47,26,2153341.0,33.31115432545795,4.9085975991483455
JPMorgan Chase Bank,0,Del Oro Branch,1337,1973-10-29,2000-01-08,7505 Fannin Street,Houston,Harris,TX,77054,29.69276,-95.401,131441.0,142013.0,148057.0,152545.0,161214.0,184328.0,205919,53,26,1125517.0,56.66268515912082,7.769101240082432
JPMorgan Chase Bank,0,Lakeside Branch,1338,1973-07-19,2000-01-08,10411 Westheimer Road,Houston,Harris,TX,77042,29.73678,-95.55905,346672.0,341394.0,395232.0,462150.0,483258.0,549594.0,634501,53,26,3212801.0,83.02631882586422,10.599269242999544
JPMorgan Chase Bank,0,North Freeway Branch,1339,1970-07-17,2000-01-08,9130 North Freeway,Houston,Harris,TX,77037,29.89115,-95.41173,145021.0,157167.0,164972.0,167637.0,180529.0,204245.0,196090,56,26,1215661.0,35.21489991104737,5.156815360867251
JPMorgan Chase Bank,0,Cyfair Branch,1340,1981-11-05,2000-01-08,13103 Fm 1960 West,Houston,Harris,TX,77065,29.91856,-95.61193,146147.0,147714.0,163357.0,179509.0,195798.0,192488.0,209846,45,26,1234859.0,43.5855679555516,6.214823491538812
JPMorgan Chase Bank,0,South Belt Branch,1341,1979-01-11,2000-01-08,11222 South Belt Drive,Houston,Harris,TX,77089,29.59389,-95.22545,124462.0,119011.0,131050.0,145393.0,151805.0,153600.0,166677,47,26,991998.0,33.91798299882695,4.988037233232445
JPMorgan Chase Bank,0,Bay Area Boulevard Branch,1342,1982-05-24,2000-01-08,2475 Bay Area Boulevard,Houston,Harris,TX,77058,29.57513,-95.1081,127013.0,146230.0,157367.0,173747.0,187556.0,203565.0,211937,44,26,1207415.0,66.86244715107902,8.907996340812584
JPMorgan Chase Bank,0,West Little York Branch,1343,1973-11-19,2000-01-08,6510 West Little York Road,Houston,Harris,TX,77040,29.8658,-95.4885,158677.0,173978.0,190553.0,203013.0,216076.0,236422.0,250374,53,26,1429093.0,57.78846335637805,7.89778794355307
JPMorgan Chase Bank,0,Eldridge Parkway Branch,1344,1983-03-01,2000-01-08,1490 Eldridge Parkway,Houston,Harris,TX,77077,29.75863,-95.62541,194525.0,211452.0,255276.0,279352.0,312001.0,362903.0,358264,43,26,1973773.0,84.173756586557,10.714530936322952
JPMorgan Chase Bank,0,Westwood Branch,1346,1974-06-24,2000-01-08,9525 Bissonnet Street,Houston,Harris,TX,77036,29.67561,-95.54493,165435.0,160759.0,166679.0,169008.0,170852.0,183326.0,191509,52,26,1207568.0,15.76087285036419,2.4692676074798303
JPMorgan Chase Bank,0,West Oaks Branch,1347,1983-09-13,2000-01-08,14651 Alief Clodine Road,Houston,Harris,TX,77082,29.70872,-95.64426,59932.0,63291.0,67097.0,72758.0,79579.0,85293.0,90901,43,26,518851.0,51.673563371821395,7.18935271281016
JPMorgan Chase Bank,0,Kingwood Branch,1348,1974-07-01,2000-01-08,1075 Kingwood Drive,Kingwood,Harris,TX,77339,30.04978,-95.24074,211712.0,215652.0,233786.0,256986.0,268639.0,270098.0,282429,52,26,1739302.0,33.40245238814994,4.920568615135079
JPMorgan Chase Bank,0,Pasadena South Branch,1349,1979-02-04,2000-01-08,3930 Burke Rd,Pasadena,Harris,TX,77504,29.65099,-95.18461,100438.0,98113.0,98338.0,102693.0,106745.0,108375.0,112745,47,26,727447.0,12.253330412791971,1.9451429390668018
JPMorgan Chase Bank,0,Allen Center Branch,1351,1964-04-15,2000-01-08,"500 Dallas St, Ste L-10",Houston,Harris,TX,77002,29.75789,-95.37016,116792.0,126447.0,139976.0,151001.0,172350.0,190353.0,192687,62,26,1089606.0,64.9830467840263,8.702588667621791
JPMorgan Chase Bank,0,Conroe Branch,1352,1988-02-29,2000-01-08,1320 West Davis,Conroe,Montgomery,TX,77304,30.31616,-95.47426,158164.0,167670.0,183493.0,201802.0,220654.0,231556.0,234997,38,26,1398336.0,48.57805821805215,6.821608457406603
JPMorgan Chase Bank,0,Sugar Land Branch,1353,1983-01-11,2000-01-08,2430 Highway 6,Sugar Land,Fort Bend,TX,77478,29.59631,-95.61695,188531.0,188179.0,212393.0,229499.0,254948.0,280528.0,295195,43,26,1649273.0,56.576372055524025,7.759203093129785
JPMorgan Chase Bank,0,Friendswood Branch,1354,1966-03-19,2000-01-08,611 South Friendswood Drive,Friendswood,Galveston,TX,77546,29.52636,-95.19727,143521.0,153740.0,157156.0,171892.0,195025.0,200297.0,219717,60,26,1241348.0,53.09048849994078,7.355599498123788
JPMorgan Chase Bank,0,Mcallen Neuhaus Tower Branch,1358,1945-10-12,2000-01-08,200 South Tenth Street,Mcallen,Hidalgo,TX,78501,26.20206,-98.23039,460270.0,488531.0,515836.0,523621.0,485161.0,464974.0,451306,81,26,3389699.0,-1.9475525235188043,-0.3272578759678235
JPMorgan Chase Bank,0,West Galleria Branch,1360,1973-04-17,2000-01-08,6330 West Loop S,Bellaire,Harris,TX,77401,29.71191,-95.46064,144558.0,139505.0,150656.0,160890.0,187235.0,202786.0,212139,53,26,1197769.0,46.75009338812103,6.601438303693508
JPMorgan Chase Bank,0,Bear Creek Branch,1361,1979-01-03,2000-01-08,4600 Highway 6 North,Houston,Harris,TX,77084,29.84183,-95.64573,119267.0,130438.0,147595.0,152726.0,170762.0,187659.0,203733,47,26,1112180.0,70.82093118800674,9.334405414415702
JPMorgan Chase Bank,0,Almeda Genoa Branch,1362,1970-09-17,2000-01-08,11650 Fuqua Street,Houston,Harris,TX,77034,29.61812,-95.21335,93573.0,97048.0,111588.0,117178.0,130847.0,134455.0,135559,56,26,820248.0,44.869780812841306,6.372565532082519
JPMorgan Chase Bank,0,Almeda Genoa Motor Bank Branch,1363,1982-06-21,2000-01-08,11650 Fuqua,Houston,Harris,TX,77034,29.61853,-95.21297,0.0,0.0,0.0,0.0,0.0,0.0,0,44,26,0.0,,
JPMorgan Chase Bank,0,Gulfgate Branch,1364,1972-06-30,2000-01-08,2900 Woodridge Street,Houston,Harris,TX,77087,29.70054,-95.29661,158964.0,155984.0,171573.0,179222.0,183440.0,198375.0,206718,54,26,1254276.0,30.040763946553938,4.475209821869708
JPMorgan Chase Bank,0,Highland Village Branch,1365,1973-06-03,2000-01-08,2900 Weslayan,Houston,Harris,TX,77027,29.73892,-95.44169,124384.0,137040.0,137991.0,147406.0,159240.0,172762.0,183159,53,26,1061982.0,47.252862104450735,6.662221365011178
JPMorgan Chase Bank,0,Fondren South Branch,1366,1975-01-29,2000-01-08,6671 West Bellfort,Houston,Harris,TX,77035,29.65595,-95.50766,38704.0,37835.0,38882.0,44268.0,46546.0,50341.0,57278,51,26,313854.0,47.989871847871015,6.751011554451791
JPMorgan Chase Bank,0,Clear Lake City Boulevard Branch,1367,1973-06-03,2000-01-08,1200 Clear Lake City Boulevard,Houston,Harris,TX,77062,29.58185,-95.15429,120517.0,130233.0,134141.0,153070.0,170666.0,187277.0,196700,53,26,1092604.0,63.21348855348208,8.507396003069069
JPMorgan Chase Bank,0,Bay Area Boulevard Motor Bank Branch,1368,1982-03-05,2000-01-08,2475 Bay Area Boulevard,Houston,Harris,TX,77058,29.57513,-95.1081,0.0,0.0,0.0,0.0,0.0,0.0,0,44,26,0.0,,
JPMorgan Chase Bank,0,Northeast Branch,1369,1976-09-06,2000-01-08,8799 North Loop East,Houston,Harris,TX,77029,29.79873,-95.27351,36823.0,35387.0,37538.0,42220.0,44040.0,46965.0,50457,50,26,293430.0,37.025771936018245,5.390235805526
JPMorgan Chase Bank,0,Humble Branch,1370,1907-12-13,2000-01-08,19747 Highway 59 North,Humble,Harris,TX,77338,30.00312,-95.26936,118619.0,119295.0,136112.0,116478.0,125064.0,132216.0,136900,119,26,884684.0,15.411527664202193,2.4176637568522397
JPMorgan Chase Bank,0,Panther Creek Branch,1372,1990-07-24,2000-01-08,4755 West Panther Creek Drive,The Woodlands,Montgomery,TX,77381,30.16676,-95.50223,142338.0,149819.0,168096.0,219618.0,210407.0,216720.0,222396,36,26,1329394.0,56.24499430932007,7.721159324121785
JPMorgan Chase Bank,0,San Marcelo Branch,1373,1944-10-05,2000-01-08,1475 Ruben M. Torres Boulevard,Brownsville,Cameron,TX,78521,25.95149,-97.49643,226389.0,243823.0,252886.0,262957.0,245804.0,269636.0,239907,82,26,1741402.0,5.9711381736745155,0.9712965893274861
JPMorgan Chase Bank,0,Boca Chica Branch,1374,1965-10-05,2000-01-08,2300 Boca Chica Boulevard,Brownsville,Cameron,TX,78521,25.92197,-97.48649,81184.0,78928.0,81033.0,81829.0,82646.0,88701.0,91353,61,26,585674.0,12.52586716594403,1.9863529018651294
JPMorgan Chase Bank,0,Lyons and Lockwood Branch,1376,1993-01-11,2000-01-08,1605 Lockwood,Houston,Harris,TX,77020,29.77682,-95.31581,29175.0,28652.0,32290.0,33716.0,36062.0,39263.0,42974,33,26,242132.0,47.297343616109686,6.667590700135495
JPMorgan Chase Bank,0,West Anderson Branch,1380,1984-04-01,2000-01-08,2711 West Anderson Lane,Austin,Travis,TX,78757,30.35858,-97.73624,112449.0,109733.0,127071.0,139278.0,163013.0,167940.0,185204,42,26,1004688.0,64.7004419781412,8.671533130913755
JPMorgan Chase Bank,0,Barton Creek Branch,1381,1982-03-22,2000-01-08,2224 Walsh Tarlton Lane,Austin,Travis,TX,78746,30.26202,-97.80903,83271.0,86339.0,91199.0,99878.0,103354.0,112674.0,116255,44,26,692970.0,39.610428600593245,5.718983022623925
JPMorgan Chase Bank,0,Research Branch,1382,1993-07-01,2000-01-08,12222 Research Boulevard,Austin,Travis,TX,78759,30.42672,-97.75515,65052.0,64729.0,77896.0,84130.0,91622.0,99621.0,110048,33,26,593098.0,69.16927996064686,9.157500720743528
JPMorgan Chase Bank,0,Downtown Dallas Branch,1383,1964-08-06,2000-01-08,2200 Ross Avenue,Dallas,Dallas,TX,75201,32.78858,-96.79728,197953.0,199900.0,212329.0,231759.0,251186.0,289743.0,317153,62,26,1700023.0,60.216313973518965,8.172729750859009
JPMorgan Chase Bank,0,Motor Bank Facility Branch,1384,1979-12-17,2000-01-08,2101 Pearl,Dallas,Dallas,TX,75201,32.78733,-96.79904,0.0,0.0,0.0,0.0,0.0,0.0,0,47,26,0.0,,
JPMorgan Chase Bank,0,South Preston Royal Branch,1386,1963-10-08,2000-01-08,10729 Preston Road,Dallas,Dallas,TX,75230,32.89389,-96.804,207208.0,222472.0,219214.0,242575.0,273577.0,312048.0,318909,63,26,1796003.0,53.9076676576194,7.450896375811378
JPMorgan Chase Bank,0,Casa Linda Branch,1387,1962-05-14,2000-01-08,9409 Garland Road,Dallas,Dallas,TX,75218,32.83313,-96.7031,205330.0,193814.0,207027.0,216685.0,232796.0,237195.0,252313,64,26,1545160.0,22.881702625042614,3.4938484707268236
JPMorgan Chase Bank,0,Walnut Hill and Monroe Branch,1388,1959-06-04,2000-01-08,2945 Walnut Hill Lane,Dallas,Dallas,TX,75229,32.88102,-96.87972,57991.0,57475.0,62103.0,72879.0,82685.0,85254.0,84465,67,26,502852.0,45.65191150350916,6.468065905764142
JPMorgan Chase Bank,0,Park Central Motor Bank Branch,1390,1979-02-01,2000-01-08,12741 Merit Drive,Dallas,Dallas,TX,75251,32.92236,-96.77229,0.0,0.0,0.0,0.0,0.0,0.0,0,47,26,0.0,,
JPMorgan Chase Bank,0,Campbell Centre Branch,1391,1979-02-01,2000-01-08,6251 Greenville Avenue,Dallas,Dallas,TX,75206,32.86142,-96.76776,66644.0,74410.0,85004.0,97742.0,105765.0,127417.0,122098,47,26,679080.0,83.20929115899406,10.617689346166092
JPMorgan Chase Bank,0,Garland Broadway Branch,1392,1971-06-30,2000-01-08,3200 Broadway,Garland,Dallas,TX,75043,32.87785,-96.62009,178246.0,179791.0,184318.0,198133.0,208316.0,220953.0,232162,55,26,1401919.0,30.248084108479294,4.502951691152646
JPMorgan Chase Bank,0,Las Colinas Branch,1393,1908-02-12,2000-01-08,460 East John Carpenter Freeway,Irving,Dallas,TX,75062,32.85852,-96.93256,81902.0,77753.0,85590.0,84116.0,112841.0,105515.0,113325,118,26,661042.0,38.36658445459207,5.561415082795285
JPMorgan Chase Bank,0,Las Colinas Motor Bank Branch,1394,1954-10-30,2000-01-08,460 East John Carpenter Freeway,Irving,Dallas,TX,75062,32.85924,-96.93534,0.0,0.0,0.0,0.0,0.0,0.0,0,72,26,0.0,,
JPMorgan Chase Bank,0,Irving Boulevard Branch,1395,1987-06-22,2000-01-08,111 East Irving Boulevard,Irving,Dallas,TX,75060,32.8138,-96.94563,115822.0,115152.0,124777.0,127212.0,137012.0,141919.0,156721,39,26,918615.0,35.311944190222924,5.16939017941398
JPMorgan Chase Bank,0,Hillcrest Branch,1396,1930-02-01,2000-01-08,6437 Hillcrest Avenue,Dallas,Dallas,TX,75205,32.84497,-96.78725,121057.0,123447.0,132626.0,152351.0,151919.0,197498.0,197171,96,26,1076069.0,62.87451365885492,8.46980397844277
JPMorgan Chase Bank,0,Downtown Arlington Branch,1398,1937-02-08,2000-01-08,500 East Border Street,Arlington,Tarrant,TX,76010,32.73347,-97.10135,221493.0,234077.0,242105.0,248001.0,252610.0,246319.0,257944,89,26,1702549.0,16.456953492886907,2.5717040922026646
JPMorgan Chase Bank,0,Detached Facility Branch,1399,1986-09-07,2000-01-08,501 East Second Street,Arlington,Tarrant,TX,76010,32.73124,-97.10289,0.0,0.0,0.0,0.0,0.0,0.0,0,40,26,0.0,,
JPMorgan Chase Bank,0,Hurst Branch,1400,1928-07-01,2000-01-08,1800 Precinct Line Rd,Hurst,Tarrant,TX,76054,32.84728,-97.18612,108291.0,110463.0,113026.0,116215.0,124788.0,127964.0,139365,98,26,840112.0,28.694905393800042,4.294216492226188
JPMorgan Chase Bank,0,Plano and Preston Branch,1401,1992-11-05,2000-01-08,1517 Preston Road,Plano,Collin,TX,75093,33.01986,-96.7953,102229.0,114260.0,126120.0,134274.0,135816.0,139180.0,152856,34,26,904735.0,49.523129444678126,6.934554142270466
JPMorgan Chase Bank,0,Casa View Branch,1402,1958-01-10,2000-01-08,2325 Gus Thomasson Road,Dallas,Dallas,TX,75228,32.83488,-96.6753,69644.0,73297.0,79461.0,81646.0,82626.0,84853.0,90426,68,26,561953.0,29.8403308253403,4.448354456731551
JPMorgan Chase Bank,0,Inwood and Stemmons Motor Bank Brh,1403,1965-04-16,2000-01-08,2807 Irving Blvd,Dallas,Dallas,TX,75207,32.81015,-96.8486,41350.0,44063.0,47879.0,50508.0,52370.0,55101.0,61543,61,26,352814.0,48.83434099153567,6.852295899127636
JPMorgan Chase Bank,0,Quarum Motor Bank Branch,1404,1971-04-26,2000-01-08,13101 Preston Road,Dallas,Dallas,TX,75230,32.92771,-96.80361,0.0,0.0,0.0,0.0,0.0,0.0,0,55,26,0.0,,
JPMorgan Chase Bank,0,Farmers Branch,1406,1961-09-15,2000-01-08,12897 Josey Lane,Farmers Branch,Dallas,TX,75234,32.92209,-96.88179,105739.0,108309.0,117762.0,119571.0,126605.0,133240.0,139779,65,26,851005.0,32.19247392163724,4.7613585436833805
JPMorgan Chase Bank,0,Drive-Thru Facility Branch,1407,1976-02-03,2000-01-08,12875 Josey Lane,Farmers Branch,Dallas,TX,75234,32.92153,-96.88176,0.0,0.0,0.0,0.0,0.0,0.0,0,50,26,0.0,,
JPMorgan Chase Bank,0,West Garland Branch,1408,1964-10-26,2000-01-08,3445 Buckingham Road,Garland,Dallas,TX,75042,32.93124,-96.68219,85265.0,93082.0,105873.0,115896.0,125670.0,136138.0,152135,62,26,814059.0,78.42608338708732,10.131035771366669
JPMorgan Chase Bank,0,Grand Prairie Branch,1409,1947-05-29,2000-01-08,700 East Main Street,Grand Prairie,Dallas,TX,75050,32.74593,-96.99607,54232.0,50964.0,56784.0,58906.0,60179.0,59725.0,68813,79,26,409603.0,26.886340168166395,4.048497170578225
JPMorgan Chase Bank,0,Richardson Branch,1410,1905-01-01,2000-01-08,100 North Central Expressway,Richardson,Dallas,TX,75080,32.95171,-96.73351,183760.0,187064.0,194196.0,222038.0,237464.0,268941.0,319922,121,26,1613385.0,74.09773617762299,9.681198481832132
JPMorgan Chase Bank,0,Richardson Motor Bank Branch,1412,1981-01-07,2000-01-08,235 North Central Expressway,Richardson,Dallas,TX,75080,32.95264,-96.73385,0.0,0.0,0.0,0.0,0.0,0.0,0,45,26,0.0,,
JPMorgan Chase Bank,0,Central Arlington Branch,1413,1975-09-06,2000-01-08,700 West Arkansas Lane,Arlington,Tarrant,TX,76013,32.70643,-97.11584,67076.0,67024.0,70114.0,72487.0,76103.0,79043.0,87310,51,26,519157.0,30.16578209791878,4.49194312438701
JPMorgan Chase Bank,0,Colleyville Branch,1414,1972-08-18,2000-01-08,5000 Colleyville Boulevard,Colleyville,Tarrant,TX,76034,32.88343,-97.15389,114471.0,116765.0,142874.0,161315.0,196636.0,224910.0,271389,54,26,1228360.0,137.08100741672564,15.47362351195003
JPMorgan Chase Bank,0,Forest Hill Branch,1415,1974-07-01,2000-01-08,3217 California Parkway,Fort Worth,Tarrant,TX,76119,32.66189,-97.27973,45642.0,47846.0,53135.0,57493.0,61978.0,61862.0,70149,52,26,398105.0,53.693966083870116,7.426015958807763
JPMorgan Chase Bank,0,Fort Worth Motor Bank Branch,1417,1982-09-13,2000-01-08,401 East Weatherford,Fort Worth,Tarrant,TX,76102,32.75832,-97.33062,0.0,0.0,0.0,0.0,0.0,0.0,0,44,26,0.0,,
JPMorgan Chase Bank,0,Lewisville Branch,1418,1910-01-01,2000-01-08,925 West Main Street,Lewisville,Denton,TX,75067,33.04338,-97.01677,88645.0,92953.0,100726.0,112743.0,115807.0,123350.0,134316,116,26,768540.0,51.52123639235151,7.171403345393768
JPMorgan Chase Bank,0,Castell Motor Bank Branch,1419,1881-09-01,2000-01-08,300 South Castell Avenue,New Braunfels,Comal,TX,78130,29.70225,-98.12528,158712.0,151012.0,145348.0,156319.0,155094.0,153938.0,159978,145,26,1080401.0,0.7976712535914109,0.13250549004111267
JPMorgan Chase Bank,0,Oak Park Branch,1421,1987-03-16,2000-01-08,1020 N.E. Loop 410,San Antonio,Bexar,TX,78209,29.51583,-98.4567,94469.0,90841.0,99993.0,97627.0,102321.0,115757.0,118465,39,26,719473.0,25.40092517122019,3.844489760306735
JPMorgan Chase Bank,0,Highland Park Branch,1422,1947-09-18,2000-01-08,519 East Highland Boulevard,San Antonio,Bexar,TX,78210,29.39698,-98.48682,65029.0,63285.0,59073.0,59084.0,60187.0,65828.0,67645,79,26,440131.0,4.022820587737779,0.6595004868914067
JPMorgan Chase Bank,0,Highland Park Motor Bank Branch,1423,1973-04-24,2000-01-08,519 East Highland Boulevard,San Antonio,Bexar,TX,78210,29.39697,-98.48679,0.0,0.0,0.0,0.0,0.0,0.0,0,53,26,0.0,,
JPMorgan Chase Bank,0,Medical Center Fredericksburg Branch,1424,1987-03-16,2000-01-08,7959 Fredericksburg,San Antonio,Bexar,TX,78229,29.5121,-98.56836,47205.0,49157.0,51739.0,54281.0,60940.0,62693.0,69898,39,26,395913.0,48.07329732019913,6.7610388875624094
JPMorgan Chase Bank,0,El Paso - Downtown Branch,1428,1925-06-29,2000-01-08,501 North Mesa Street,El Paso,El Paso,TX,79901,31.75889,-106.49059,487522.0,513252.0,527654.0,579701.0,500183.0,506428.0,469681,101,26,3584421.0,-3.659527159799968,-0.6194348223194313
JPMorgan Chase Bank,0,Chamizal Branch,1431,1977-04-01,2000-01-08,5760 Alameda,El Paso,El Paso,TX,79905,31.76695,-106.41907,55114.0,58356.0,64400.0,67178.0,67652.0,72503.0,71984,49,26,457187.0,30.60928257792938,4.55119650161242
JPMorgan Chase Bank,0,First State Branch,1432,1948-06-05,2000-01-08,2829 Montana Avenue,El Paso,El Paso,TX,79903,31.80869,-106.46267,66090.0,65980.0,70390.0,71496.0,74823.0,72810.0,73127,78,26,494716.0,10.647601755182327,1.7006356901162478
JPMorgan Chase Bank,0,Northgate Branch,1433,1959-12-14,2000-01-08,5209 Wren Avenue,El Paso,El Paso,TX,79924,31.87774,-106.42029,75966.0,75825.0,107759.0,96518.0,121932.0,113286.0,98959,67,26,690245.0,30.267488086775664,4.505546287406315
JPMorgan Chase Bank,0,El Paso - East Branch,1434,1981-02-11,2000-01-08,1533 Lee Trevino Drive,El Paso,El Paso,TX,79936,31.75481,-106.319,91822.0,93574.0,104853.0,112733.0,116509.0,111567.0,127421,45,26,758479.0,38.769575918625165,5.612594126180848
JPMorgan Chase Bank,0,El Paso - West Branch,1435,1980-02-06,2000-01-08,7598 North Mesa,El Paso,El Paso,TX,79912,31.8387,-106.56615,91428.0,102759.0,113141.0,127943.0,135129.0,143577.0,148347,46,26,862324.0,62.255545347158424,8.400992383089068
JPMorgan Chase Bank,0,Coronado Branch,1436,1962-04-09,2000-01-08,135 Shadow Mountain Drive,El Paso,El Paso,TX,79912,31.83022,-106.5264,91521.0,105302.0,108567.0,117827.0,124684.0,131735.0,131562,64,26,811198.0,43.75061461303963,6.2351621319461925
JPMorgan Chase Bank,0,Mcallen North Branch,1442,1994-04-25,2000-01-08,5601 North 10th Street,Mcallen,Hidalgo,TX,78504,26.25385,-98.2215,64937.0,66596.0,75860.0,79191.0,98280.0,100902.0,101336,32,26,587102.0,56.052789626869114,7.699062475890761
JPMorgan Chase Bank,0,South Arlington Branch,1444,1994-06-27,2000-01-08,4828 South Cooper Street,Arlington,Tarrant,TX,76017,32.66787,-97.13414,69682.0,74989.0,83284.0,87050.0,80238.0,80009.0,88606,32,26,563858.0,27.15765907981975,4.085545032923621
JPMorgan Chase Bank,0,Riverside Branch,1445,1994-06-04,2000-01-08,5445 Almeda,Houston,Harris,TX,77004,29.72131,-95.37927,38730.0,37048.0,43067.0,50436.0,51492.0,53839.0,60082,32,26,334694.0,55.130389878647044,7.592701952658465
JPMorgan Chase Bank,0,South Post Oak Branch,1448,1995-05-06,2000-01-08,12401 South Post Oak Road,Houston,Harris,TX,77045,29.64481,-95.46365,27813.0,50630.0,47301.0,40801.0,40671.0,43127.0,64384,31,26,314727.0,131.48887211016432,15.015141963733146
JPMorgan Chase Bank,0,Houston Tower Branch,1449,1993-12-15,2000-01-08,600 Travis,Houston,Harris,TX,77002,29.76009,-95.36372,133495.0,176339.0,192939.0,211211.0,211769.0,218967.0,223180,33,26,1367900.0,67.18229147159069,8.942761318973824
JPMorgan Chase Bank,0,Desert Vista Branch,1451,1995-09-18,2000-01-08,11391 Montwood Drive,El Paso,El Paso,TX,79936,31.76794,-106.29781,34056.0,33227.0,37136.0,37526.0,43078.0,54974.0,49508,31,26,289505.0,45.37232793046746,6.433977146340131
JPMorgan Chase Bank,0,Southeast Oak Cliff Branch,1452,1995-10-23,2000-01-08,4435 South Lancaster,Dallas,Dallas,TX,75216,32.69432,-96.79336,10888.0,12131.0,14454.0,17021.0,17668.0,23021.0,24278,31,26,119461.0,122.97942689199117,14.299447860903802
JPMorgan Chase Bank,0,Lincoln Village Branch,1453,1995-06-11,2000-01-08,"6406 North I H 35, Suite 2850",Austin,Travis,TX,78752,30.193,-97.76909,26310.0,28507.0,32264.0,35725.0,38626.0,36070.0,38588,31,26,236090.0,46.666666666666664,6.5913355096224535
JPMorgan Chase Bank,0,Kings Crossing Branch,1454,1995-11-09,2000-01-08,2611 Lake Houston Parkway,Kingwood,Harris,TX,77339,30.04492,-95.18146,116448.0,143974.0,148733.0,148517.0,160698.0,170740.0,177797,31,26,1066907.0,52.683601264083535,7.307991406514236
JPMorgan Chase Bank,0,William Cannon and Mopac Branch,1455,1995-10-30,2000-01-08,6600 S Mo Pac Expy,Austin,Travis,TX,78749,30.22124,-97.83653,72656.0,77244.0,95126.0,107263.0,125857.0,143344.0,155169,31,26,776659.0,113.5666703369302,13.480762729237462
JPMorgan Chase Bank,0,Parker and Tollway Branch,1456,1996-03-09,2000-01-08,5976 West Parker Road,Plano,Collin,TX,75093,33.04513,-96.82756,103992.0,112929.0,141595.0,166231.0,183299.0,228290.0,249026,30,26,1185362.0,139.4664974228787,15.666464324099127
JPMorgan Chase Bank,0,I 35 and Sam Bass Branch,1457,1997-06-30,2000-01-08,920 North Interstate Highway 35,Round Rock,Williamson,TX,78681,30.5205,-97.71931,46301.0,43801.0,74941.0,72948.0,74517.0,77696.0,78267,29,26,468471.0,69.03954558216884,9.143544278448301
JPMorgan Chase Bank,0,Legacy and Coit Branch,1458,1997-08-07,2000-01-08,4004 Legacy Drive,Plano,Collin,TX,75024,33.07168,-96.77346,86374.0,105661.0,122534.0,139246.0,145878.0,163381.0,194423,29,26,957497.0,125.09435709820085,14.479423740187292
JPMorgan Chase Bank,0,Hebron Parkway and Josey Branch,1460,1997-09-29,2000-01-08,1801 Hebron Parkway East,Carrollton,Denton,TX,75010,33.02022,-96.94238,34771.0,41003.0,48350.0,53154.0,55124.0,64523.0,86996,29,26,383921.0,150.19700324983464,16.51460054821281
JPMorgan Chase Bank,0,Galleria Private Internatl Branch,1461,1997-10-11,2000-01-08,2700 Post Oak Boulevard,Houston,Harris,TX,77056,29.73652,-95.46052,0.0,0.0,0.0,0.0,0.0,0.0,0,29,26,0.0,,
JPMorgan Chase Bank,0,Bellaire At Beltway Branch,1462,1998-01-26,2000-01-08,9709 Bellaire Boulevard,Houston,Harris,TX,77036,29.70471,-95.55195,173825.0,234991.0,241383.0,294393.0,359460.0,386461.0,542050,28,26,2232563.0,211.83661728750178,20.87074115339305
JPMorgan Chase Bank,0,West University Branch,1465,1998-08-06,2000-01-08,3203 Southwest Freeway,Houston,Harris,TX,77027,29.7293,-95.42928,172863.0,185782.0,201582.0,215023.0,236627.0,249130.0,284353,28,26,1545360.0,64.49616170030602,8.649057040342822
JPMorgan Chase Bank,0,Alden Bridge Branch,1466,1998-09-14,2000-01-08,8201 Kuykendahl,The Woodlands,Montgomery,TX,77382,30.20956,-95.52477,91276.0,98771.0,99803.0,123252.0,131600.0,144290.0,162449,28,26,851441.0,77.9755905166747,10.084643525339043
JPMorgan Chase Bank,0,Preston and Lebanon Branch,1467,1998-02-11,2000-01-08,4998 Preston Road,Frisco,Collin,TX,75034,33.11988,-96.80546,60101.0,70293.0,71800.0,79747.0,84048.0,99169.0,107830,28,26,572988.0,79.41465200246253,10.232498513131194
JPMorgan Chase Bank,0,Memorial Villages Branch,1468,1999-03-15,2000-01-08,9335 Katy Freeway,Houston,Harris,TX,77024,29.78374,-95.52161,128707.0,130985.0,156324.0,184501.0,241251.0,272834.0,282826,27,26,1397428.0,119.74406986410995,14.021354008692711
JPMorgan Chase Bank,0,Lake Forest and Eldorado Branch,1469,1999-03-22,2000-01-08,4990 W Eldorado Parkway,Mckinney,Collin,TX,75070,33.17396,-96.68389,49718.0,54356.0,62760.0,67922.0,76276.0,88300.0,101179,27,26,500511.0,103.50577255722273,12.571759831730311
JPMorgan Chase Bank,0,Heb Four Points Fsc Branch,1470,1999-07-09,2000-01-08,7301 North Fm 620,Austin,Travis,TX,78726,30.40533,-97.85313,32116.0,31497.0,44255.0,41286.0,40577.0,49215.0,53698,27,26,292644.0,67.20014945821397,8.944700730712185
JPMorgan Chase Bank,0,Mcdermott and Watters Branch,1471,1999-08-30,2000-01-08,908 West Mcdermott Drive,Allen,Collin,TX,75013,33.10084,-96.68391,67644.0,69938.0,79385.0,97286.0,117058.0,123670.0,132236,27,26,687217.0,95.48814381172018,11.82014999678158
JPMorgan Chase Bank,0,Macarthur Park Branch,1472,1999-09-13,2000-01-08,7825 Macarthur Boulevard,Irving,Dallas,TX,75063,32.91359,-96.95878,63910.0,77925.0,235582.0,336564.0,331687.0,174370.0,172350,27,26,1392388.0,169.67610702550462,17.979643185360228
JPMorgan Chase Bank,0,Heb Round Rock Fsc Branch,1473,1999-09-28,2000-01-08,16900 Rural Route 620,Round Rock,Williamson,TX,78681,30.49971,-97.72133,18992.0,19497.0,22963.0,26820.0,30321.0,30309.0,34997,27,26,183899.0,84.2723251895535,10.724404351586948
JPMorgan Chase Bank,0,Heb Hancock Fsc Branch,1474,1999-09-27,2000-01-08,1000 East 41st Street,Austin,Travis,TX,78751,30.29886,-97.7207,13780.0,10816.0,14165.0,15084.0,18391.0,20361.0,22227,27,26,114824.0,61.29898403483309,8.29421860221229
JPMorgan Chase Bank,0,Heb Bee Cave Fsc Branch,1476,1999-10-25,2000-01-08,12400 West Highway 71,Bee Cave,Travis,TX,78738,30.30359,-97.93349,18396.0,19134.0,20893.0,25182.0,26556.0,28476.0,30673,27,26,169310.0,66.73733420308763,8.894382273681245
JPMorgan Chase Bank,0,Morgan Guar. Tr. Co. Of Ny Branch,1485,1897-01-01,2001-10-11,60 Wall Street,New York City,New York,NY,10005,40.70577,-74.00829,0.0,0.0,0.0,0.0,0.0,0.0,0,129,25,0.0,,
JPMorgan Chase Bank,0,Northern Lights Branch,1523,1958-09-06,2004-11-13,3233 Cleveland Avenue,Columbus,Franklin,OH,43224,40.03334,-82.96386,36643.0,38103.0,39137.0,39516.0,39855.0,42994.0,47216,68,22,283464.0,28.854078541604128,4.31570437993547
